{
"type": "FeatureCollection",
"name": "hotosm_gha_education_facilities_points_geojson",
"features": [
{ "type": "Feature", "properties": { "name": "Frelimart School", "name:en": null, "amenity": "kindergarten", "building": null, "operator:type": null, "capacity:persons": null, "addr:full": null, "addr:city": null, "source": null, "osm_id": 3950017303, "osm_type": "nodes" }, "geometry": { "type": "Point", "coordinates": [ -0.2029393, 5.6023717 ] } },
{ "type": "Feature", "properties": { "name": "Central Lyceum Montessori", "name:en": null, "amenity": "kindergarten", "building": null, "operator:type": null, "capacity:persons": null, "addr:full": null, "addr:city": null, "source": null, "osm_id": 8866641645, "osm_type": "nodes" }, "geometry": { "type": "Point", "coordinates": [ -0.1926335, 5.6846724 ] } },
{ "type": "Feature", "properties": { "name": "JesLord Academy", "name:en": null, "amenity": "kindergarten", "building": null, "operator:type": null, "capacity:persons": null, "addr:full": null, "addr:city": null, "source": null, "osm_id": 9858078281, "osm_type": "nodes" }, "geometry": { "type": "Point", "coordinates": [ -0.1977593, 5.718195 ] } },
{ "type": "Feature", "properties": { "name": "Crestwood School", "name:en": null, "amenity": "kindergarten", "building": null, "operator:type": null, "capacity:persons": null, "addr:full": null, "addr:city": null, "source": null, "osm_id": 8700415386, "osm_type": "nodes" }, "geometry": { "type": "Point", "coordinates": [ -0.2013788, 5.7062479 ] } },
{ "type": "Feature", "properties": { "name": "Virginia School", "name:en": null, "amenity": "kindergarten", "building": null, "operator:type": null, "capacity:persons": null, "addr:full": null, "addr:city": null, "source": null, "osm_id": 3032289145, "osm_type": "nodes" }, "geometry": { "type": "Point", "coordinates": [ -0.4468462, 5.5602563 ] } },
{ "type": "Feature", "properties": { "name": "Happy Guest House", "name:en": null, "amenity": "kindergarten", "building": null, "operator:type": null, "capacity:persons": null, "addr:full": null, "addr:city": null, "source": null, "osm_id": 3032289149, "osm_type": "nodes" }, "geometry": { "type": "Point", "coordinates": [ -0.445438, 5.5613695 ] } },
{ "type": "Feature", "properties": { "name": "Merry Mary", "name:en": null, "amenity": "kindergarten", "building": null, "operator:type": null, "capacity:persons": null, "addr:full": null, "addr:city": null, "source": null, "osm_id": 6476082711, "osm_type": "nodes" }, "geometry": { "type": "Point", "coordinates": [ -0.1681401, 5.5707251 ] } },
{ "type": "Feature", "properties": { "name": "OAK HILLS SCHOOL", "name:en": null, "amenity": "school", "building": null, "operator:type": null, "capacity:persons": null, "addr:full": null, "addr:city": null, "source": null, "osm_id": 12246425072, "osm_type": "nodes" }, "geometry": { "type": "Point", "coordinates": [ -1.6432044, 6.6477223 ] } },
{ "type": "Feature", "properties": { "name": "A.M.E Zion School", "name:en": null, "amenity": "school", "building": null, "operator:type": null, "capacity:persons": null, "addr:full": null, "addr:city": null, "source": null, "osm_id": 6261725578, "osm_type": "nodes" }, "geometry": { "type": "Point", "coordinates": [ -0.2567878, 6.1023202 ] } },
{ "type": "Feature", "properties": { "name": "Victoryland Academy", "name:en": null, "amenity": "school", "building": null, "operator:type": null, "capacity:persons": null, "addr:full": null, "addr:city": null, "source": null, "osm_id": 6257552315, "osm_type": "nodes" }, "geometry": { "type": "Point", "coordinates": [ -0.2527764, 6.1025057 ] } },
{ "type": "Feature", "properties": { "name": "Solomon Commercial School ( Solococo)", "name:en": null, "amenity": "school", "building": null, "operator:type": null, "capacity:persons": null, "addr:full": null, "addr:city": null, "source": null, "osm_id": 6288584469, "osm_type": "nodes" }, "geometry": { "type": "Point", "coordinates": [ -0.2679427, 6.1004747 ] } },
{ "type": "Feature", "properties": { "name": "St. Anne's Anglican Basic School", "name:en": null, "amenity": "school", "building": null, "operator:type": null, "capacity:persons": null, "addr:full": null, "addr:city": null, "source": null, "osm_id": 6327494825, "osm_type": "nodes" }, "geometry": { "type": "Point", "coordinates": [ -0.26567, 6.0995671 ] } },
{ "type": "Feature", "properties": { "name": "B.B International School", "name:en": null, "amenity": "school", "building": null, "operator:type": null, "capacity:persons": null, "addr:full": null, "addr:city": null, "source": null, "osm_id": 6362059207, "osm_type": "nodes" }, "geometry": { "type": "Point", "coordinates": [ -0.2519864, 6.1123469 ] } },
{ "type": "Feature", "properties": { "name": "Apimpoa Islamic Basic School", "name:en": null, "amenity": "school", "building": null, "operator:type": null, "capacity:persons": null, "addr:full": null, "addr:city": null, "source": null, "osm_id": 6362063083, "osm_type": "nodes" }, "geometry": { "type": "Point", "coordinates": [ -0.2581149, 6.1018875 ] } },
{ "type": "Feature", "properties": { "name": "St. Marys Preparatory School", "name:en": null, "amenity": "school", "building": null, "operator:type": null, "capacity:persons": null, "addr:full": null, "addr:city": null, "source": null, "osm_id": 6256591947, "osm_type": "nodes" }, "geometry": { "type": "Point", "coordinates": [ -0.2550297, 6.0943336 ] } },
{ "type": "Feature", "properties": { "name": "Kwaekesse R/C Primary School", "name:en": null, "amenity": "school", "building": null, "operator:type": null, "capacity:persons": null, "addr:full": null, "addr:city": null, "source": null, "osm_id": 8507644365, "osm_type": "nodes" }, "geometry": { "type": "Point", "coordinates": [ -0.1123817, 7.0582148 ] } },
{ "type": "Feature", "properties": { "name": "Shepherdfield Montessori School", "name:en": null, "amenity": "school", "building": null, "operator:type": null, "capacity:persons": null, "addr:full": null, "addr:city": null, "source": null, "osm_id": 9858026187, "osm_type": "nodes" }, "geometry": { "type": "Point", "coordinates": [ -0.1880926, 5.7124102 ] } },
{ "type": "Feature", "properties": { "name": "Voice Of The Lord Basic School", "name:en": null, "amenity": "school", "building": null, "operator:type": null, "capacity:persons": null, "addr:full": null, "addr:city": null, "source": null, "osm_id": 6395824635, "osm_type": "nodes" }, "geometry": { "type": "Point", "coordinates": [ -0.2635366, 6.0949867 ] } },
{ "type": "Feature", "properties": { "name": "School for the Deaf", "name:en": null, "amenity": "school", "building": null, "operator:type": null, "capacity:persons": null, "addr:full": null, "addr:city": null, "source": null, "osm_id": 6317098275, "osm_type": "nodes" }, "geometry": { "type": "Point", "coordinates": [ -0.2705334, 6.0960555 ] } },
{ "type": "Feature", "properties": { "name": "King Jesus School", "name:en": null, "amenity": "school", "building": null, "operator:type": null, "capacity:persons": null, "addr:full": null, "addr:city": null, "source": null, "osm_id": 6288590077, "osm_type": "nodes" }, "geometry": { "type": "Point", "coordinates": [ -0.2791124, 6.0928306 ] } },
{ "type": "Feature", "properties": { "name": "Kofi Yeboah Memorial D/A School", "name:en": null, "amenity": "school", "building": null, "operator:type": null, "capacity:persons": null, "addr:full": null, "addr:city": null, "source": null, "osm_id": 8500247841, "osm_type": "nodes" }, "geometry": { "type": "Point", "coordinates": [ -0.0833374, 7.0388473 ] } },
{ "type": "Feature", "properties": { "name": "Holy Rosary R/C School", "name:en": null, "amenity": "school", "building": null, "operator:type": null, "capacity:persons": null, "addr:full": null, "addr:city": null, "source": null, "osm_id": 8507537785, "osm_type": "nodes" }, "geometry": { "type": "Point", "coordinates": [ -0.0910584, 7.0360404 ] } },
{ "type": "Feature", "properties": { "name": "Mintakrom M/A Basic School", "name:en": null, "amenity": "school", "building": null, "operator:type": null, "capacity:persons": null, "addr:full": null, "addr:city": null, "source": null, "osm_id": 6298881725, "osm_type": "nodes" }, "geometry": { "type": "Point", "coordinates": [ -0.101354, 6.084844 ] } },
{ "type": "Feature", "properties": { "name": "LIMS Preparatory and JHS", "name:en": null, "amenity": "school", "building": null, "operator:type": null, "capacity:persons": null, "addr:full": null, "addr:city": null, "source": null, "osm_id": 6431426085, "osm_type": "nodes" }, "geometry": { "type": "Point", "coordinates": [ -0.0805422, 5.8966408 ] } },
{ "type": "Feature", "properties": { "name": "The Morning Star International High School", "name:en": null, "amenity": "school", "building": null, "operator:type": null, "capacity:persons": null, "addr:full": null, "addr:city": null, "source": null, "osm_id": 6431648885, "osm_type": "nodes" }, "geometry": { "type": "Point", "coordinates": [ -0.0912254, 5.8867765 ] } },
{ "type": "Feature", "properties": { "name": "Nkurakan R/C JHS", "name:en": null, "amenity": "school", "building": null, "operator:type": null, "capacity:persons": null, "addr:full": null, "addr:city": null, "source": null, "osm_id": 6256150509, "osm_type": "nodes" }, "geometry": { "type": "Point", "coordinates": [ -0.2237096, 6.1262194 ] } },
{ "type": "Feature", "properties": { "name": "Kyeremanteng M/A Basic School", "name:en": null, "amenity": "school", "building": null, "operator:type": null, "capacity:persons": null, "addr:full": null, "addr:city": null, "source": null, "osm_id": 6312179618, "osm_type": "nodes" }, "geometry": { "type": "Point", "coordinates": [ -0.2443476, 6.108567 ] } },
{ "type": "Feature", "properties": { "name": null, "name:en": null, "amenity": "school", "building": null, "operator:type": null, "capacity:persons": null, "addr:full": null, "addr:city": null, "source": null, "osm_id": 6546830638, "osm_type": "nodes" }, "geometry": { "type": "Point", "coordinates": [ -0.2033415, 11.1288847 ] } },
{ "type": "Feature", "properties": { "name": "Calvary Presbyterian Basic School", "name:en": null, "amenity": "school", "building": null, "operator:type": null, "capacity:persons": null, "addr:full": null, "addr:city": null, "source": null, "osm_id": 6616587553, "osm_type": "nodes" }, "geometry": { "type": "Point", "coordinates": [ -0.0163072, 5.7051151 ] } },
{ "type": "Feature", "properties": { "name": "Royals of Shakespeare International School", "name:en": null, "amenity": "school", "building": null, "operator:type": null, "capacity:persons": null, "addr:full": null, "addr:city": null, "source": null, "osm_id": 6312244085, "osm_type": "nodes" }, "geometry": { "type": "Point", "coordinates": [ -0.0064152, 5.7160749 ] } },
{ "type": "Feature", "properties": { "name": "Happy Bloomers School", "name:en": null, "amenity": "school", "building": null, "operator:type": null, "capacity:persons": null, "addr:full": null, "addr:city": null, "source": null, "osm_id": 7614602453, "osm_type": "nodes" }, "geometry": { "type": "Point", "coordinates": [ -0.1917151, 5.6823496 ] } },
{ "type": "Feature", "properties": { "name": "Royal Avenue International School", "name:en": null, "amenity": "school", "building": null, "operator:type": null, "capacity:persons": null, "addr:full": null, "addr:city": null, "source": null, "osm_id": 8554955745, "osm_type": "nodes" }, "geometry": { "type": "Point", "coordinates": [ -0.2019813, 5.7017784 ] } },
{ "type": "Feature", "properties": { "name": "Agbogba Anglican JHS", "name:en": null, "amenity": "school", "building": null, "operator:type": null, "capacity:persons": null, "addr:full": null, "addr:city": null, "source": null, "osm_id": 7746281116, "osm_type": "nodes" }, "geometry": { "type": "Point", "coordinates": [ -0.2019094, 5.6909918 ] } },
{ "type": "Feature", "properties": { "name": "Saint Joseph's Anglican Primary School", "name:en": null, "amenity": "school", "building": null, "operator:type": null, "capacity:persons": null, "addr:full": null, "addr:city": null, "source": null, "osm_id": 7746242250, "osm_type": "nodes" }, "geometry": { "type": "Point", "coordinates": [ -0.2025758, 5.6917068 ] } },
{ "type": "Feature", "properties": { "name": "G&G Baby World", "name:en": null, "amenity": "school", "building": null, "operator:type": null, "capacity:persons": null, "addr:full": null, "addr:city": null, "source": null, "osm_id": 8708723012, "osm_type": "nodes" }, "geometry": { "type": "Point", "coordinates": [ -0.1823005, 5.6722191 ] } },
{ "type": "Feature", "properties": { "name": "The Sanneh Institute", "name:en": null, "amenity": "school", "building": null, "operator:type": null, "capacity:persons": null, "addr:full": null, "addr:city": null, "source": null, "osm_id": 10600441585, "osm_type": "nodes" }, "geometry": { "type": "Point", "coordinates": [ -0.1860096, 5.6690023 ] } },
{ "type": "Feature", "properties": { "name": "Janet Hammond School", "name:en": null, "amenity": "school", "building": null, "operator:type": null, "capacity:persons": null, "addr:full": null, "addr:city": null, "source": null, "osm_id": 7306778542, "osm_type": "nodes" }, "geometry": { "type": "Point", "coordinates": [ -0.2025863, 5.678576 ] } },
{ "type": "Feature", "properties": { "name": "North Legon Pre-School", "name:en": null, "amenity": "school", "building": null, "operator:type": null, "capacity:persons": null, "addr:full": null, "addr:city": null, "source": null, "osm_id": 5209797326, "osm_type": "nodes" }, "geometry": { "type": "Point", "coordinates": [ -0.1829411, 5.6709614 ] } },
{ "type": "Feature", "properties": { "name": "Hallmark International School", "name:en": null, "amenity": "school", "building": null, "operator:type": null, "capacity:persons": null, "addr:full": null, "addr:city": null, "source": null, "osm_id": 5108895936, "osm_type": "nodes" }, "geometry": { "type": "Point", "coordinates": [ -0.2055717, 5.6672005 ] } },
{ "type": "Feature", "properties": { "name": "The Masters School", "name:en": null, "amenity": "school", "building": null, "operator:type": null, "capacity:persons": null, "addr:full": null, "addr:city": null, "source": null, "osm_id": 7605069051, "osm_type": "nodes" }, "geometry": { "type": "Point", "coordinates": [ -0.2010498, 5.6722218 ] } },
{ "type": "Feature", "properties": { "name": "Little Professors Academy", "name:en": null, "amenity": "school", "building": null, "operator:type": null, "capacity:persons": null, "addr:full": null, "addr:city": null, "source": null, "osm_id": 4972577045, "osm_type": "nodes" }, "geometry": { "type": "Point", "coordinates": [ -0.1904951, 5.6727739 ] } },
{ "type": "Feature", "properties": { "name": "Blooming Dales International School", "name:en": null, "amenity": "school", "building": null, "operator:type": null, "capacity:persons": null, "addr:full": null, "addr:city": null, "source": null, "osm_id": 6501857103, "osm_type": "nodes" }, "geometry": { "type": "Point", "coordinates": [ -0.2241494, 5.6059066 ] } },
{ "type": "Feature", "properties": { "name": "Noble Child Academy", "name:en": null, "amenity": "school", "building": null, "operator:type": null, "capacity:persons": null, "addr:full": null, "addr:city": null, "source": null, "osm_id": 6750805684, "osm_type": "nodes" }, "geometry": { "type": "Point", "coordinates": [ -0.1004016, 5.584208 ] } },
{ "type": "Feature", "properties": { "name": null, "name:en": null, "amenity": "school", "building": null, "operator:type": null, "capacity:persons": null, "addr:full": null, "addr:city": null, "source": null, "osm_id": 6750830532, "osm_type": "nodes" }, "geometry": { "type": "Point", "coordinates": [ -0.1006215, 5.5820865 ] } },
{ "type": "Feature", "properties": { "name": null, "name:en": null, "amenity": "school", "building": null, "operator:type": null, "capacity:persons": null, "addr:full": null, "addr:city": null, "source": null, "osm_id": 9540423976, "osm_type": "nodes" }, "geometry": { "type": "Point", "coordinates": [ -0.1539363, 5.5927688 ] } },
{ "type": "Feature", "properties": { "name": "E-Language Laboratory", "name:en": null, "amenity": "school", "building": null, "operator:type": null, "capacity:persons": null, "addr:full": null, "addr:city": null, "source": null, "osm_id": 4056390485, "osm_type": "nodes" }, "geometry": { "type": "Point", "coordinates": [ -0.2189539, 5.5980183 ] } },
{ "type": "Feature", "properties": { "name": "Dominion Bright International School", "name:en": null, "amenity": "school", "building": null, "operator:type": null, "capacity:persons": null, "addr:full": null, "addr:city": "Accra", "source": null, "osm_id": 6005378806, "osm_type": "nodes" }, "geometry": { "type": "Point", "coordinates": [ -0.2351801, 5.6449531 ] } },
{ "type": "Feature", "properties": { "name": "Vilac International School", "name:en": null, "amenity": "school", "building": null, "operator:type": null, "capacity:persons": null, "addr:full": null, "addr:city": null, "source": null, "osm_id": 7319360234, "osm_type": "nodes" }, "geometry": { "type": "Point", "coordinates": [ -0.2386911, 5.6256746 ] } },
{ "type": "Feature", "properties": { "name": "Christ Royal International School", "name:en": null, "amenity": "school", "building": null, "operator:type": null, "capacity:persons": null, "addr:full": null, "addr:city": null, "source": null, "osm_id": 7733664928, "osm_type": "nodes" }, "geometry": { "type": "Point", "coordinates": [ -0.2380181, 5.6242089 ] } },
{ "type": "Feature", "properties": { "name": "Amrahia Community School", "name:en": null, "amenity": "school", "building": null, "operator:type": null, "capacity:persons": null, "addr:full": null, "addr:city": null, "source": null, "osm_id": 4313553900, "osm_type": "nodes" }, "geometry": { "type": "Point", "coordinates": [ -0.142303, 5.7681688 ] } },
{ "type": "Feature", "properties": { "name": null, "name:en": null, "amenity": "school", "building": null, "operator:type": null, "capacity:persons": null, "addr:full": null, "addr:city": null, "source": null, "osm_id": 8017288776, "osm_type": "nodes" }, "geometry": { "type": "Point", "coordinates": [ -0.3314323, 5.6376647 ] } },
{ "type": "Feature", "properties": { "name": null, "name:en": null, "amenity": "school", "building": null, "operator:type": null, "capacity:persons": null, "addr:full": null, "addr:city": null, "source": null, "osm_id": 2151945180, "osm_type": "nodes" }, "geometry": { "type": "Point", "coordinates": [ -0.1083811, 5.5913288 ] } },
{ "type": "Feature", "properties": { "name": "Adu Memorial School", "name:en": null, "amenity": "school", "building": null, "operator:type": null, "capacity:persons": null, "addr:full": null, "addr:city": null, "source": null, "osm_id": 6939818487, "osm_type": "nodes" }, "geometry": { "type": "Point", "coordinates": [ -0.1104426, 5.613277 ] } },
{ "type": "Feature", "properties": { "name": "Roosevelt Preparatory School", "name:en": null, "amenity": "school", "building": null, "operator:type": null, "capacity:persons": null, "addr:full": null, "addr:city": null, "source": null, "osm_id": 6922652045, "osm_type": "nodes" }, "geometry": { "type": "Point", "coordinates": [ -0.111282, 5.6154969 ] } },
{ "type": "Feature", "properties": { "name": null, "name:en": null, "amenity": "school", "building": null, "operator:type": null, "capacity:persons": null, "addr:full": null, "addr:city": null, "source": null, "osm_id": 9235904122, "osm_type": "nodes" }, "geometry": { "type": "Point", "coordinates": [ -0.1220847, 5.6208498 ] } },
{ "type": "Feature", "properties": { "name": "The Gifted Child Montessori School", "name:en": null, "amenity": "school", "building": null, "operator:type": null, "capacity:persons": null, "addr:full": null, "addr:city": null, "source": null, "osm_id": 6870757415, "osm_type": "nodes" }, "geometry": { "type": "Point", "coordinates": [ -0.1151167, 5.6291947 ] } },
{ "type": "Feature", "properties": { "name": "Dayspring School", "name:en": null, "amenity": "school", "building": null, "operator:type": null, "capacity:persons": null, "addr:full": null, "addr:city": null, "source": null, "osm_id": 6938637666, "osm_type": "nodes" }, "geometry": { "type": "Point", "coordinates": [ -0.1103744, 5.6265609 ] } },
{ "type": "Feature", "properties": { "name": "Achimota Preparatory/Junior High School", "name:en": null, "amenity": "school", "building": null, "operator:type": null, "capacity:persons": null, "addr:full": null, "addr:city": null, "source": null, "osm_id": 372806897, "osm_type": "nodes" }, "geometry": { "type": "Point", "coordinates": [ -0.2186587, 5.6225681 ] } },
{ "type": "Feature", "properties": { "name": "Duke International Schhol", "name:en": null, "amenity": "school", "building": null, "operator:type": null, "capacity:persons": null, "addr:full": null, "addr:city": null, "source": null, "osm_id": 6329648394, "osm_type": "nodes" }, "geometry": { "type": "Point", "coordinates": [ -0.1596907, 5.5745051 ] } },
{ "type": "Feature", "properties": { "name": "Divine Provision School", "name:en": null, "amenity": "school", "building": null, "operator:type": null, "capacity:persons": null, "addr:full": null, "addr:city": null, "source": null, "osm_id": 4582472589, "osm_type": "nodes" }, "geometry": { "type": "Point", "coordinates": [ -0.164773, 5.5674502 ] } },
{ "type": "Feature", "properties": { "name": "La Nativity Basic School", "name:en": null, "amenity": "school", "building": null, "operator:type": null, "capacity:persons": null, "addr:full": null, "addr:city": null, "source": null, "osm_id": 6329610203, "osm_type": "nodes" }, "geometry": { "type": "Point", "coordinates": [ -0.1553195, 5.5726061 ] } },
{ "type": "Feature", "properties": { "name": "Vicken Computer Training Institute", "name:en": null, "amenity": "school", "building": null, "operator:type": null, "capacity:persons": null, "addr:full": null, "addr:city": "Accra", "source": "Open Cities Accra / GARID- Field Survey", "osm_id": 7012078818, "osm_type": "nodes" }, "geometry": { "type": "Point", "coordinates": [ -0.2017021, 5.5853517 ] } },
{ "type": "Feature", "properties": { "name": "GTP School", "name:en": "GTP School", "amenity": "school", "building": null, "operator:type": null, "capacity:persons": null, "addr:full": null, "addr:city": null, "source": null, "osm_id": 4545091693, "osm_type": "nodes" }, "geometry": { "type": "Point", "coordinates": [ -0.0044685, 5.6584546 ] } },
{ "type": "Feature", "properties": { "name": "Republic Road Basic & Jhs", "name:en": null, "amenity": "school", "building": null, "operator:type": null, "capacity:persons": null, "addr:full": null, "addr:city": null, "source": null, "osm_id": 8443260318, "osm_type": "nodes" }, "geometry": { "type": "Point", "coordinates": [ -0.0031885, 5.6544346 ] } },
{ "type": "Feature", "properties": { "name": "Twedaase Junior High School", "name:en": null, "amenity": "school", "building": null, "operator:type": null, "capacity:persons": null, "addr:full": null, "addr:city": null, "source": null, "osm_id": 6314508363, "osm_type": "nodes" }, "geometry": { "type": "Point", "coordinates": [ -0.0035371, 5.6486498 ] } },
{ "type": "Feature", "properties": { "name": "Christian Vertical Center", "name:en": null, "amenity": "school", "building": null, "operator:type": null, "capacity:persons": null, "addr:full": null, "addr:city": null, "source": null, "osm_id": 10146602270, "osm_type": "nodes" }, "geometry": { "type": "Point", "coordinates": [ -0.0136862, 5.6518773 ] } },
{ "type": "Feature", "properties": { "name": "Mazon Grace Academy", "name:en": "Mazon Grace Academy", "amenity": "school", "building": null, "operator:type": null, "capacity:persons": null, "addr:full": null, "addr:city": null, "source": null, "osm_id": 4544614095, "osm_type": "nodes" }, "geometry": { "type": "Point", "coordinates": [ -0.008299, 5.6541169 ] } },
{ "type": "Feature", "properties": { "name": "Mexico Junior High School", "name:en": null, "amenity": "school", "building": null, "operator:type": null, "capacity:persons": null, "addr:full": null, "addr:city": null, "source": null, "osm_id": 2622097835, "osm_type": "nodes" }, "geometry": { "type": "Point", "coordinates": [ -0.0110253, 5.6301043 ] } },
{ "type": "Feature", "properties": { "name": "Hill Star School", "name:en": null, "amenity": "school", "building": null, "operator:type": null, "capacity:persons": null, "addr:full": null, "addr:city": null, "source": null, "osm_id": 7775298322, "osm_type": "nodes" }, "geometry": { "type": "Point", "coordinates": [ -0.3310182, 5.5152935 ] } },
{ "type": "Feature", "properties": { "name": "Gyankama Methodist Primary & JHS", "name:en": null, "amenity": "school", "building": null, "operator:type": null, "capacity:persons": null, "addr:full": null, "addr:city": null, "source": null, "osm_id": 4743213942, "osm_type": "nodes" }, "geometry": { "type": "Point", "coordinates": [ -0.1871678, 5.818216 ] } },
{ "type": "Feature", "properties": { "name": "Peduase Methodist Primary & JHS", "name:en": null, "amenity": "school", "building": null, "operator:type": null, "capacity:persons": null, "addr:full": null, "addr:city": null, "source": null, "osm_id": 7874927497, "osm_type": "nodes" }, "geometry": { "type": "Point", "coordinates": [ -0.183269, 5.8054946 ] } },
{ "type": "Feature", "properties": { "name": "Afro City School Complex", "name:en": null, "amenity": "school", "building": null, "operator:type": null, "capacity:persons": null, "addr:full": null, "addr:city": null, "source": null, "osm_id": 8708728891, "osm_type": "nodes" }, "geometry": { "type": "Point", "coordinates": [ -0.1901092, 5.7556663 ] } },
{ "type": "Feature", "properties": { "name": "GreenHill School", "name:en": null, "amenity": "school", "building": null, "operator:type": null, "capacity:persons": null, "addr:full": null, "addr:city": null, "source": null, "osm_id": 8202685049, "osm_type": "nodes" }, "geometry": { "type": "Point", "coordinates": [ -0.1831752, 5.767019 ] } },
{ "type": "Feature", "properties": { "name": "Liberty Specialist Institute", "name:en": null, "amenity": "school", "building": null, "operator:type": null, "capacity:persons": null, "addr:full": null, "addr:city": null, "source": null, "osm_id": 6360097718, "osm_type": "nodes" }, "geometry": { "type": "Point", "coordinates": [ -0.2527834, 6.07376 ] } },
{ "type": "Feature", "properties": { "name": "Methodist Kindagaten School", "name:en": null, "amenity": "school", "building": null, "operator:type": null, "capacity:persons": null, "addr:full": null, "addr:city": null, "source": null, "osm_id": 6394489648, "osm_type": "nodes" }, "geometry": { "type": "Point", "coordinates": [ -0.2542355, 6.0865084 ] } },
{ "type": "Feature", "properties": { "name": "Government Secretarial School", "name:en": null, "amenity": "school", "building": null, "operator:type": null, "capacity:persons": null, "addr:full": null, "addr:city": null, "source": null, "osm_id": 6312192022, "osm_type": "nodes" }, "geometry": { "type": "Point", "coordinates": [ -0.257944, 6.0805056 ] } },
{ "type": "Feature", "properties": { "name": "Kaneshie North 1&2 Primary and JHS", "name:en": null, "amenity": "school", "building": null, "operator:type": null, "capacity:persons": null, "addr:full": null, "addr:city": null, "source": null, "osm_id": 4595116406, "osm_type": "nodes" }, "geometry": { "type": "Point", "coordinates": [ -0.2356388, 5.5794938 ] } },
{ "type": "Feature", "properties": { "name": null, "name:en": null, "amenity": "school", "building": null, "operator:type": null, "capacity:persons": null, "addr:full": null, "addr:city": null, "source": null, "osm_id": 8939661014, "osm_type": "nodes" }, "geometry": { "type": "Point", "coordinates": [ -0.2110691, 6.1310879 ] } },
{ "type": "Feature", "properties": { "name": "Akimcoco", "name:en": null, "amenity": "school", "building": null, "operator:type": null, "capacity:persons": null, "addr:full": null, "addr:city": null, "source": null, "osm_id": 8437388541, "osm_type": "nodes" }, "geometry": { "type": "Point", "coordinates": [ -0.3672788, 6.2137215 ] } },
{ "type": "Feature", "properties": { "name": "Doriano College of Fashion", "name:en": null, "amenity": "college", "building": null, "operator:type": null, "capacity:persons": null, "addr:full": null, "addr:city": null, "source": null, "osm_id": 5776820744, "osm_type": "nodes" }, "geometry": { "type": "Point", "coordinates": [ -0.1927623, 5.681924 ] } },
{ "type": "Feature", "properties": { "name": "School of Ordnance", "name:en": null, "amenity": "college", "building": null, "operator:type": null, "capacity:persons": null, "addr:full": null, "addr:city": null, "source": null, "osm_id": 3797170450, "osm_type": "nodes" }, "geometry": { "type": "Point", "coordinates": [ -0.1761256, 5.5880949 ] } },
{ "type": "Feature", "properties": { "name": "University of Ghana Business School", "name:en": null, "amenity": "college", "building": null, "operator:type": null, "capacity:persons": null, "addr:full": null, "addr:city": null, "source": null, "osm_id": 9659866317, "osm_type": "nodes" }, "geometry": { "type": "Point", "coordinates": [ -0.188627, 5.6528087 ] } },
{ "type": "Feature", "properties": { "name": "Department of Animal Biology and Conservation Science", "name:en": null, "amenity": "university", "building": null, "operator:type": null, "capacity:persons": null, "addr:full": null, "addr:city": null, "source": null, "osm_id": 9867034379, "osm_type": "nodes" }, "geometry": { "type": "Point", "coordinates": [ -0.1877829, 5.6537135 ] } },
{ "type": "Feature", "properties": { "name": "Angies Angels Montessori School", "name:en": null, "amenity": "kindergarten", "building": null, "operator:type": null, "capacity:persons": null, "addr:full": null, "addr:city": null, "source": null, "osm_id": 1251736958, "osm_type": "nodes" }, "geometry": { "type": "Point", "coordinates": [ -0.2114747, 5.613414 ] } },
{ "type": "Feature", "properties": { "name": "Enjoy Day Care", "name:en": null, "amenity": "kindergarten", "building": null, "operator:type": null, "capacity:persons": null, "addr:full": null, "addr:city": null, "source": null, "osm_id": 5955288712, "osm_type": "nodes" }, "geometry": { "type": "Point", "coordinates": [ -0.2333035, 5.5957037 ] } },
{ "type": "Feature", "properties": { "name": "Sweet Angels", "name:en": null, "amenity": "kindergarten", "building": null, "operator:type": null, "capacity:persons": null, "addr:full": null, "addr:city": null, "source": null, "osm_id": 2569474129, "osm_type": "nodes" }, "geometry": { "type": "Point", "coordinates": [ -0.1993344, 5.6061569 ] } },
{ "type": "Feature", "properties": { "name": "Anglican School", "name:en": null, "amenity": "school", "building": null, "operator:type": null, "capacity:persons": null, "addr:full": null, "addr:city": null, "source": null, "osm_id": 7395792695, "osm_type": "nodes" }, "geometry": { "type": "Point", "coordinates": [ -0.1458862, 6.3974923 ] } },
{ "type": "Feature", "properties": { "name": null, "name:en": null, "amenity": "school", "building": null, "operator:type": null, "capacity:persons": null, "addr:full": null, "addr:city": null, "source": null, "osm_id": 8422810818, "osm_type": "nodes" }, "geometry": { "type": "Point", "coordinates": [ -0.1200435, 6.2071644 ] } },
{ "type": "Feature", "properties": { "name": "Kobo Kobo R/C Basic School", "name:en": null, "amenity": "school", "building": null, "operator:type": null, "capacity:persons": null, "addr:full": null, "addr:city": null, "source": null, "osm_id": 6298882704, "osm_type": "nodes" }, "geometry": { "type": "Point", "coordinates": [ -0.1418513, 6.119558 ] } },
{ "type": "Feature", "properties": { "name": "Western Hill School of Nursing", "name:en": null, "amenity": "school", "building": null, "operator:type": null, "capacity:persons": null, "addr:full": null, "addr:city": null, "source": null, "osm_id": 7496242318, "osm_type": "nodes" }, "geometry": { "type": "Point", "coordinates": [ -0.2762212, 5.6585311 ] } },
{ "type": "Feature", "properties": { "name": "Ofankor D/A Primary School", "name:en": null, "amenity": "school", "building": null, "operator:type": null, "capacity:persons": null, "addr:full": null, "addr:city": null, "source": null, "osm_id": 5911970522, "osm_type": "nodes" }, "geometry": { "type": "Point", "coordinates": [ -0.266738, 5.6571621 ] } },
{ "type": "Feature", "properties": { "name": "Silicon Valley International School", "name:en": null, "amenity": "school", "building": null, "operator:type": null, "capacity:persons": null, "addr:full": null, "addr:city": null, "source": null, "osm_id": 5911853529, "osm_type": "nodes" }, "geometry": { "type": "Point", "coordinates": [ -0.2649503, 5.6551638 ] } },
{ "type": "Feature", "properties": { "name": "Mensah Sarbah", "name:en": null, "amenity": "school", "building": null, "operator:type": null, "capacity:persons": null, "addr:full": null, "addr:city": null, "source": null, "osm_id": 6867087462, "osm_type": "nodes" }, "geometry": { "type": "Point", "coordinates": [ -0.1090394, 5.5968335 ] } },
{ "type": "Feature", "properties": { "name": null, "name:en": null, "amenity": "school", "building": null, "operator:type": null, "capacity:persons": null, "addr:full": null, "addr:city": null, "source": null, "osm_id": 6863781597, "osm_type": "nodes" }, "geometry": { "type": "Point", "coordinates": [ -0.1057328, 5.5965365 ] } },
{ "type": "Feature", "properties": { "name": "His Grace School", "name:en": null, "amenity": "school", "building": null, "operator:type": null, "capacity:persons": null, "addr:full": null, "addr:city": null, "source": null, "osm_id": 6929853231, "osm_type": "nodes" }, "geometry": { "type": "Point", "coordinates": [ -0.1064455, 5.6068324 ] } },
{ "type": "Feature", "properties": { "name": null, "name:en": null, "amenity": "school", "building": null, "operator:type": null, "capacity:persons": null, "addr:full": null, "addr:city": null, "source": null, "osm_id": 6865192274, "osm_type": "nodes" }, "geometry": { "type": "Point", "coordinates": [ -0.1074025, 5.6082516 ] } },
{ "type": "Feature", "properties": { "name": "Star International School", "name:en": null, "amenity": "school", "building": null, "operator:type": null, "capacity:persons": null, "addr:full": null, "addr:city": null, "source": null, "osm_id": 6898780253, "osm_type": "nodes" }, "geometry": { "type": "Point", "coordinates": [ -0.1163051, 5.6090183 ] } },
{ "type": "Feature", "properties": { "name": null, "name:en": null, "amenity": "school", "building": null, "operator:type": null, "capacity:persons": null, "addr:full": null, "addr:city": null, "source": null, "osm_id": 6583629625, "osm_type": "nodes" }, "geometry": { "type": "Point", "coordinates": [ -0.1066597, 5.6129063 ] } },
{ "type": "Feature", "properties": { "name": "Gerald International School", "name:en": null, "amenity": "school", "building": null, "operator:type": null, "capacity:persons": null, "addr:full": null, "addr:city": null, "source": null, "osm_id": 6883312737, "osm_type": "nodes" }, "geometry": { "type": "Point", "coordinates": [ -0.1146512, 5.63297 ] } },
{ "type": "Feature", "properties": { "name": "Saviour Divine Academy", "name:en": null, "amenity": "school", "building": null, "operator:type": null, "capacity:persons": null, "addr:full": null, "addr:city": "Accra", "source": "Open Cities Accra / GARID- Field Survey", "osm_id": 6277014889, "osm_type": "nodes" }, "geometry": { "type": "Point", "coordinates": [ -0.2476415, 5.6176023 ] } },
{ "type": "Feature", "properties": { "name": "My Playroom School", "name:en": null, "amenity": "school", "building": null, "operator:type": null, "capacity:persons": null, "addr:full": null, "addr:city": null, "source": null, "osm_id": 5956683632, "osm_type": "nodes" }, "geometry": { "type": "Point", "coordinates": [ -0.2332989, 5.5972463 ] } },
{ "type": "Feature", "properties": { "name": "Jesus and Mary School", "name:en": null, "amenity": "school", "building": null, "operator:type": null, "capacity:persons": null, "addr:full": null, "addr:city": null, "source": null, "osm_id": 7540632334, "osm_type": "nodes" }, "geometry": { "type": "Point", "coordinates": [ -0.2463591, 5.6304431 ] } },
{ "type": "Feature", "properties": { "name": "Good News School, Tesano", "name:en": null, "amenity": "school", "building": null, "operator:type": null, "capacity:persons": null, "addr:full": null, "addr:city": null, "source": null, "osm_id": 6278579349, "osm_type": "nodes" }, "geometry": { "type": "Point", "coordinates": [ -0.2363157, 5.6012055 ] } },
{ "type": "Feature", "properties": { "name": "Talents Resto Academy", "name:en": null, "amenity": "school", "building": null, "operator:type": null, "capacity:persons": null, "addr:full": null, "addr:city": null, "source": null, "osm_id": 6505710637, "osm_type": "nodes" }, "geometry": { "type": "Point", "coordinates": [ -0.2461003, 5.6073911 ] } },
{ "type": "Feature", "properties": { "name": "Bethany Home Academy", "name:en": null, "amenity": "school", "building": null, "operator:type": null, "capacity:persons": null, "addr:full": null, "addr:city": null, "source": null, "osm_id": 5730097210, "osm_type": "nodes" }, "geometry": { "type": "Point", "coordinates": [ -0.1797631, 5.6787689 ] } },
{ "type": "Feature", "properties": { "name": "The Gifted Montessori School", "name:en": null, "amenity": "school", "building": null, "operator:type": null, "capacity:persons": null, "addr:full": null, "addr:city": null, "source": null, "osm_id": 6522165686, "osm_type": "nodes" }, "geometry": { "type": "Point", "coordinates": [ -0.0856865, 5.6188632 ] } },
{ "type": "Feature", "properties": { "name": "Endpoint College", "name:en": null, "amenity": "school", "building": null, "operator:type": null, "capacity:persons": null, "addr:full": null, "addr:city": null, "source": null, "osm_id": 6673366297, "osm_type": "nodes" }, "geometry": { "type": "Point", "coordinates": [ -0.1014806, 5.5949256 ] } },
{ "type": "Feature", "properties": { "name": "Gims College Shs", "name:en": null, "amenity": "school", "building": null, "operator:type": null, "capacity:persons": null, "addr:full": null, "addr:city": null, "source": null, "osm_id": 6938851247, "osm_type": "nodes" }, "geometry": { "type": "Point", "coordinates": [ -0.1022798, 5.6033176 ] } },
{ "type": "Feature", "properties": { "name": null, "name:en": null, "amenity": "school", "building": null, "operator:type": null, "capacity:persons": null, "addr:full": null, "addr:city": null, "source": null, "osm_id": 3985330211, "osm_type": "nodes" }, "geometry": { "type": "Point", "coordinates": [ -0.0950586, 5.6044409 ] } },
{ "type": "Feature", "properties": { "name": "Treasure House Academy", "name:en": null, "amenity": "school", "building": null, "operator:type": null, "capacity:persons": null, "addr:full": null, "addr:city": null, "source": null, "osm_id": 6938819164, "osm_type": "nodes" }, "geometry": { "type": "Point", "coordinates": [ -0.1024425, 5.6053854 ] } },
{ "type": "Feature", "properties": { "name": "Ideal College", "name:en": null, "amenity": "school", "building": null, "operator:type": null, "capacity:persons": null, "addr:full": null, "addr:city": null, "source": null, "osm_id": 4988373760, "osm_type": "nodes" }, "geometry": { "type": "Point", "coordinates": [ -0.1687698, 5.6584618 ] } },
{ "type": "Feature", "properties": { "name": "Ghana Institute of Languages", "name:en": null, "amenity": "school", "building": null, "operator:type": null, "capacity:persons": null, "addr:full": null, "addr:city": null, "source": null, "osm_id": 6755665792, "osm_type": "nodes" }, "geometry": { "type": "Point", "coordinates": [ -0.1704529, 5.6582302 ] } },
{ "type": "Feature", "properties": { "name": "Mbs", "name:en": null, "amenity": "school", "building": null, "operator:type": null, "capacity:persons": null, "addr:full": null, "addr:city": null, "source": null, "osm_id": 5717930971, "osm_type": "nodes" }, "geometry": { "type": "Point", "coordinates": [ -0.2458577, 5.6100844 ] } },
{ "type": "Feature", "properties": { "name": "Adab Islamic Mission School", "name:en": null, "amenity": "school", "building": null, "operator:type": null, "capacity:persons": null, "addr:full": null, "addr:city": "Accra", "source": "Open Cities Accra / GARID- Field Survey", "osm_id": 6984618037, "osm_type": "nodes" }, "geometry": { "type": "Point", "coordinates": [ -0.2023596, 5.5808277 ] } },
{ "type": "Feature", "properties": { "name": "Alliance Français", "name:en": "Alliance Français", "amenity": "school", "building": null, "operator:type": null, "capacity:persons": null, "addr:full": null, "addr:city": null, "source": null, "osm_id": 4361890294, "osm_type": "nodes" }, "geometry": { "type": "Point", "coordinates": [ -0.1820777, 5.5969429 ] } },
{ "type": "Feature", "properties": { "name": "Dannaks Senior High School", "name:en": null, "amenity": "school", "building": null, "operator:type": null, "capacity:persons": null, "addr:full": null, "addr:city": "Accra", "source": null, "osm_id": 3950017300, "osm_type": "nodes" }, "geometry": { "type": "Point", "coordinates": [ -0.2007183, 5.594027 ] } },
{ "type": "Feature", "properties": { "name": "ARS Technical Senior High School", "name:en": null, "amenity": "school", "building": null, "operator:type": null, "capacity:persons": null, "addr:full": null, "addr:city": null, "source": null, "osm_id": 6125864590, "osm_type": "nodes" }, "geometry": { "type": "Point", "coordinates": [ -0.1994531, 5.5988007 ] } },
{ "type": "Feature", "properties": { "name": "Ahtoo Montesori School", "name:en": null, "amenity": "school", "building": null, "operator:type": null, "capacity:persons": null, "addr:full": null, "addr:city": null, "source": null, "osm_id": 4225899684, "osm_type": "nodes" }, "geometry": { "type": "Point", "coordinates": [ -0.2143026, 5.5835304 ] } },
{ "type": "Feature", "properties": { "name": "New Era School", "name:en": null, "amenity": "school", "building": null, "operator:type": null, "capacity:persons": null, "addr:full": null, "addr:city": null, "source": null, "osm_id": 5775921653, "osm_type": "nodes" }, "geometry": { "type": "Point", "coordinates": [ -0.2073317, 5.553841 ] } },
{ "type": "Feature", "properties": { "name": "Richard Akwei Memorial School", "name:en": null, "amenity": "school", "building": null, "operator:type": null, "capacity:persons": null, "addr:full": null, "addr:city": null, "source": null, "osm_id": 8963755301, "osm_type": "nodes" }, "geometry": { "type": "Point", "coordinates": [ -0.2172446, 5.5470906 ] } },
{ "type": "Feature", "properties": { "name": null, "name:en": null, "amenity": "school", "building": null, "operator:type": null, "capacity:persons": null, "addr:full": null, "addr:city": null, "source": "locals knowledge", "osm_id": 3740288022, "osm_type": "nodes" }, "geometry": { "type": "Point", "coordinates": [ -0.2425291, 5.5473947 ] } },
{ "type": "Feature", "properties": { "name": "Majosda Prepatory School", "name:en": null, "amenity": "school", "building": null, "operator:type": null, "capacity:persons": null, "addr:full": null, "addr:city": null, "source": null, "osm_id": 2148020862, "osm_type": "nodes" }, "geometry": { "type": "Point", "coordinates": [ -0.2397565, 5.5530004 ] } },
{ "type": "Feature", "properties": { "name": "Afex Test Prep", "name:en": null, "amenity": "school", "building": null, "operator:type": null, "capacity:persons": null, "addr:full": null, "addr:city": "Accra", "source": null, "osm_id": 6123396532, "osm_type": "nodes" }, "geometry": { "type": "Point", "coordinates": [ -0.1507518, 5.6499207 ] } },
{ "type": "Feature", "properties": { "name": "Princess Diana Memorial School", "name:en": null, "amenity": "school", "building": null, "operator:type": null, "capacity:persons": null, "addr:full": null, "addr:city": null, "source": null, "osm_id": 5210329738, "osm_type": "nodes" }, "geometry": { "type": "Point", "coordinates": [ -0.1488796, 5.6470435 ] } },
{ "type": "Feature", "properties": { "name": "Silver Peak Academy-Autism Center", "name:en": null, "amenity": "school", "building": null, "operator:type": null, "capacity:persons": null, "addr:full": null, "addr:city": null, "source": null, "osm_id": 4355196789, "osm_type": "nodes" }, "geometry": { "type": "Point", "coordinates": [ -0.1246255, 5.6738605 ] } },
{ "type": "Feature", "properties": { "name": "St. Francis of Assissi Catholic School", "name:en": null, "amenity": "school", "building": null, "operator:type": null, "capacity:persons": null, "addr:full": null, "addr:city": null, "source": null, "osm_id": 7472100393, "osm_type": "nodes" }, "geometry": { "type": "Point", "coordinates": [ -0.1380331, 5.6805706 ] } },
{ "type": "Feature", "properties": { "name": "New nation International School", "name:en": null, "amenity": "school", "building": null, "operator:type": null, "capacity:persons": null, "addr:full": null, "addr:city": null, "source": null, "osm_id": 4311942089, "osm_type": "nodes" }, "geometry": { "type": "Point", "coordinates": [ -0.1386061, 5.6874035 ] } },
{ "type": "Feature", "properties": { "name": null, "name:en": null, "amenity": "school", "building": null, "operator:type": null, "capacity:persons": null, "addr:full": null, "addr:city": null, "source": null, "osm_id": 6115655968, "osm_type": "nodes" }, "geometry": { "type": "Point", "coordinates": [ -0.0921561, 5.6254488 ] } },
{ "type": "Feature", "properties": { "name": null, "name:en": null, "amenity": "school", "building": null, "operator:type": null, "capacity:persons": null, "addr:full": null, "addr:city": null, "source": null, "osm_id": 6938718052, "osm_type": "nodes" }, "geometry": { "type": "Point", "coordinates": [ -0.1034497, 5.6250484 ] } },
{ "type": "Feature", "properties": { "name": "UST Academy", "name:en": null, "amenity": "school", "building": null, "operator:type": null, "capacity:persons": null, "addr:full": null, "addr:city": null, "source": null, "osm_id": 8598911617, "osm_type": "nodes" }, "geometry": { "type": "Point", "coordinates": [ -0.058371, 5.7273483 ] } },
{ "type": "Feature", "properties": { "name": "Government No.3", "name:en": null, "amenity": "school", "building": null, "operator:type": null, "capacity:persons": null, "addr:full": null, "addr:city": null, "source": null, "osm_id": 4286173005, "osm_type": "nodes" }, "geometry": { "type": "Point", "coordinates": [ -0.0332226, 5.6896294 ] } },
{ "type": "Feature", "properties": { "name": null, "name:en": null, "amenity": "school", "building": null, "operator:type": null, "capacity:persons": null, "addr:full": null, "addr:city": null, "source": null, "osm_id": 4286159093, "osm_type": "nodes" }, "geometry": { "type": "Point", "coordinates": [ -0.0418711, 5.6967616 ] } },
{ "type": "Feature", "properties": { "name": "Nissi School", "name:en": null, "amenity": "school", "building": null, "operator:type": null, "capacity:persons": null, "addr:full": null, "addr:city": null, "source": null, "osm_id": 7812266634, "osm_type": "nodes" }, "geometry": { "type": "Point", "coordinates": [ -0.0349178, 5.7146985 ] } },
{ "type": "Feature", "properties": { "name": null, "name:en": null, "amenity": "school", "building": null, "operator:type": null, "capacity:persons": null, "addr:full": null, "addr:city": null, "source": null, "osm_id": 3648759946, "osm_type": "nodes" }, "geometry": { "type": "Point", "coordinates": [ -0.0399822, 5.6798667 ] } },
{ "type": "Feature", "properties": { "name": null, "name:en": null, "amenity": "school", "building": null, "operator:type": null, "capacity:persons": null, "addr:full": null, "addr:city": null, "source": null, "osm_id": 6416919187, "osm_type": "nodes" }, "geometry": { "type": "Point", "coordinates": [ -0.0589084, 5.6788691 ] } },
{ "type": "Feature", "properties": { "name": "Bethel School", "name:en": null, "amenity": "school", "building": null, "operator:type": null, "capacity:persons": null, "addr:full": null, "addr:city": null, "source": null, "osm_id": 4313556922, "osm_type": "nodes" }, "geometry": { "type": "Point", "coordinates": [ -0.0442979, 5.6942731 ] } },
{ "type": "Feature", "properties": { "name": "Vetsisco", "name:en": null, "amenity": "school", "building": null, "operator:type": null, "capacity:persons": null, "addr:full": null, "addr:city": null, "source": null, "osm_id": 4286137002, "osm_type": "nodes" }, "geometry": { "type": "Point", "coordinates": [ -0.0415294, 5.6892968 ] } },
{ "type": "Feature", "properties": { "name": "Fruitful Vineyard Academy", "name:en": null, "amenity": "school", "building": null, "operator:type": null, "capacity:persons": null, "addr:full": null, "addr:city": null, "source": null, "osm_id": 7265163660, "osm_type": "nodes" }, "geometry": { "type": "Point", "coordinates": [ -0.0064856, 5.7407824 ] } },
{ "type": "Feature", "properties": { "name": "African Angel Cottage", "name:en": null, "amenity": "school", "building": null, "operator:type": null, "capacity:persons": null, "addr:full": null, "addr:city": null, "source": null, "osm_id": 2102140453, "osm_type": "nodes" }, "geometry": { "type": "Point", "coordinates": [ -0.0687534, 5.6397365 ] } },
{ "type": "Feature", "properties": { "name": "Barbies Learning Center", "name:en": null, "amenity": "school", "building": null, "operator:type": null, "capacity:persons": null, "addr:full": null, "addr:city": null, "source": null, "osm_id": 4468954745, "osm_type": "nodes" }, "geometry": { "type": "Point", "coordinates": [ -0.0654207, 5.6564024 ] } },
{ "type": "Feature", "properties": { "name": "Glowing Angel Montessori", "name:en": null, "amenity": "school", "building": null, "operator:type": null, "capacity:persons": null, "addr:full": null, "addr:city": null, "source": null, "osm_id": 7191643886, "osm_type": "nodes" }, "geometry": { "type": "Point", "coordinates": [ -0.0743351, 5.6486922 ] } },
{ "type": "Feature", "properties": { "name": null, "name:en": null, "amenity": "school", "building": null, "operator:type": null, "capacity:persons": null, "addr:full": null, "addr:city": null, "source": "survey", "osm_id": 3722374904, "osm_type": "nodes" }, "geometry": { "type": "Point", "coordinates": [ -0.1645245, 5.6669864 ] } },
{ "type": "Feature", "properties": { "name": "Health Training Institutions Unit", "name:en": null, "amenity": "school", "building": null, "operator:type": null, "capacity:persons": null, "addr:full": null, "addr:city": null, "source": null, "osm_id": 6473141985, "osm_type": "nodes" }, "geometry": { "type": "Point", "coordinates": [ -0.1663669, 5.6576235 ] } },
{ "type": "Feature", "properties": { "name": "Kanda High Way School", "name:en": null, "amenity": "school", "building": null, "operator:type": null, "capacity:persons": null, "addr:full": null, "addr:city": "Accra", "source": "Open Cities Accra / GARID- Field Survey", "osm_id": 6984353979, "osm_type": "nodes" }, "geometry": { "type": "Point", "coordinates": [ -0.2009977, 5.5877341 ] } },
{ "type": "Feature", "properties": { "name": "Living Legends College", "name:en": null, "amenity": "college", "building": null, "operator:type": null, "capacity:persons": null, "addr:full": null, "addr:city": "Accra", "source": "Open Cities Accra / GARID- Field Survey", "osm_id": 6290813187, "osm_type": "nodes" }, "geometry": { "type": "Point", "coordinates": [ -0.2414521, 5.6090655 ] } },
{ "type": "Feature", "properties": { "name": "School of Peri-Operative and Critical Care Nursing", "name:en": null, "amenity": "college", "building": null, "operator:type": null, "capacity:persons": null, "addr:full": null, "addr:city": null, "source": null, "osm_id": 9118667101, "osm_type": "nodes" }, "geometry": { "type": "Point", "coordinates": [ -0.2300826, 5.541835 ] } },
{ "type": "Feature", "properties": { "name": "YAFCA College of Ministry", "name:en": null, "amenity": "college", "building": null, "operator:type": null, "capacity:persons": null, "addr:full": null, "addr:city": null, "source": null, "osm_id": 10655652391, "osm_type": "nodes" }, "geometry": { "type": "Point", "coordinates": [ -0.1532314, 5.6461637 ] } },
{ "type": "Feature", "properties": { "name": "KNUST Africa Institute of Sanitation and Waste Management (Annex)", "name:en": null, "amenity": "college", "building": null, "operator:type": null, "capacity:persons": null, "addr:full": null, "addr:city": null, "source": null, "osm_id": 6530581081, "osm_type": "nodes" }, "geometry": { "type": "Point", "coordinates": [ -0.1308211, 5.6629279 ] } },
{ "type": "Feature", "properties": { "name": "Institute of Professional Education", "name:en": null, "amenity": "college", "building": null, "operator:type": null, "capacity:persons": null, "addr:full": null, "addr:city": null, "source": null, "osm_id": 5235962353, "osm_type": "nodes" }, "geometry": { "type": "Point", "coordinates": [ -0.1775294, 5.667888 ] } },
{ "type": "Feature", "properties": { "name": "Lancaster University Ghana", "name:en": null, "amenity": "university", "building": null, "operator:type": null, "capacity:persons": null, "addr:full": null, "addr:city": null, "source": null, "osm_id": 5141751112, "osm_type": "nodes" }, "geometry": { "type": "Point", "coordinates": [ -0.1522205, 5.6413147 ] } },
{ "type": "Feature", "properties": { "name": "Sal Valley Preparatory Nursery", "name:en": null, "amenity": "kindergarten", "building": null, "operator:type": null, "capacity:persons": null, "addr:full": null, "addr:city": "Accra", "source": null, "osm_id": 3837950398, "osm_type": "nodes" }, "geometry": { "type": "Point", "coordinates": [ -0.1941698, 5.5816803 ] } },
{ "type": "Feature", "properties": { "name": "Dill Montessori Learning Center", "name:en": null, "amenity": "kindergarten", "building": null, "operator:type": null, "capacity:persons": null, "addr:full": null, "addr:city": "Accra", "source": "Open Cities Accra / GARID- Field Survey", "osm_id": 6983704436, "osm_type": "nodes" }, "geometry": { "type": "Point", "coordinates": [ -0.1979278, 5.5766491 ] } },
{ "type": "Feature", "properties": { "name": "Los Angeles School", "name:en": null, "amenity": "kindergarten", "building": null, "operator:type": null, "capacity:persons": null, "addr:full": null, "addr:city": null, "source": null, "osm_id": 7186914871, "osm_type": "nodes" }, "geometry": { "type": "Point", "coordinates": [ -0.224839, 5.5348348 ] } },
{ "type": "Feature", "properties": { "name": "Ghateco Junior High School", "name:en": null, "amenity": "school", "building": null, "operator:type": null, "capacity:persons": null, "addr:full": null, "addr:city": null, "source": null, "osm_id": 6261903468, "osm_type": "nodes" }, "geometry": { "type": "Point", "coordinates": [ -0.2506627, 6.0797685 ] } },
{ "type": "Feature", "properties": { "name": null, "name:en": null, "amenity": "school", "building": null, "operator:type": null, "capacity:persons": null, "addr:full": null, "addr:city": null, "source": null, "osm_id": 5955240782, "osm_type": "nodes" }, "geometry": { "type": "Point", "coordinates": [ -0.2139313, 5.5566876 ] } },
{ "type": "Feature", "properties": { "name": "Virgo Preparatory School", "name:en": null, "amenity": "school", "building": null, "operator:type": null, "capacity:persons": null, "addr:full": null, "addr:city": null, "source": null, "osm_id": 4740602034, "osm_type": "nodes" }, "geometry": { "type": "Point", "coordinates": [ -0.2131265, 5.5546946 ] } },
{ "type": "Feature", "properties": { "name": "Mercy School", "name:en": null, "amenity": "school", "building": null, "operator:type": null, "capacity:persons": null, "addr:full": null, "addr:city": null, "source": null, "osm_id": 4157336044, "osm_type": "nodes" }, "geometry": { "type": "Point", "coordinates": [ -0.2027868, 5.5695896 ] } },
{ "type": "Feature", "properties": { "name": "Bluecrest College", "name:en": null, "amenity": "school", "building": null, "operator:type": null, "capacity:persons": null, "addr:full": null, "addr:city": "Accra", "source": null, "osm_id": 4157336041, "osm_type": "nodes" }, "geometry": { "type": "Point", "coordinates": [ -0.2085086, 5.5727387 ] } },
{ "type": "Feature", "properties": { "name": "Ilmun Naafi", "name:en": null, "amenity": "school", "building": null, "operator:type": null, "capacity:persons": null, "addr:full": null, "addr:city": "Accra", "source": "Open Cities Accra / GARID- Field Survey", "osm_id": 6983257693, "osm_type": "nodes" }, "geometry": { "type": "Point", "coordinates": [ -0.1954955, 5.5821877 ] } },
{ "type": "Feature", "properties": { "name": "Bevy Bi-Lingual School", "name:en": null, "amenity": "school", "building": null, "operator:type": null, "capacity:persons": null, "addr:full": null, "addr:city": null, "source": null, "osm_id": 4741326737, "osm_type": "nodes" }, "geometry": { "type": "Point", "coordinates": [ -0.1650241, 5.6451564 ] } },
{ "type": "Feature", "properties": { "name": "St. K. Michael's School", "name:en": null, "amenity": "school", "building": null, "operator:type": null, "capacity:persons": null, "addr:full": null, "addr:city": null, "source": null, "osm_id": 6314255524, "osm_type": "nodes" }, "geometry": { "type": "Point", "coordinates": [ -0.2521611, 5.6131309 ] } },
{ "type": "Feature", "properties": { "name": "Perpetual Help School", "name:en": null, "amenity": "school", "building": null, "operator:type": null, "capacity:persons": null, "addr:full": null, "addr:city": null, "source": null, "osm_id": 4216600894, "osm_type": "nodes" }, "geometry": { "type": "Point", "coordinates": [ -0.2506648, 5.6202884 ] } },
{ "type": "Feature", "properties": { "name": "Motorway Basic School", "name:en": null, "amenity": "school", "building": null, "operator:type": null, "capacity:persons": null, "addr:full": null, "addr:city": null, "source": null, "osm_id": 7088070077, "osm_type": "nodes" }, "geometry": { "type": "Point", "coordinates": [ -0.259626, 5.6145161 ] } },
{ "type": "Feature", "properties": { "name": "Crown Prince", "name:en": null, "amenity": "school", "building": null, "operator:type": null, "capacity:persons": null, "addr:full": null, "addr:city": null, "source": null, "osm_id": 3103580198, "osm_type": "nodes" }, "geometry": { "type": "Point", "coordinates": [ -0.2603515, 5.6032118 ] } },
{ "type": "Feature", "properties": { "name": "Palledium", "name:en": null, "amenity": "school", "building": null, "operator:type": null, "capacity:persons": null, "addr:full": null, "addr:city": null, "source": null, "osm_id": 8955813297, "osm_type": "nodes" }, "geometry": { "type": "Point", "coordinates": [ -0.2152123, 5.5416693 ] } },
{ "type": "Feature", "properties": { "name": "Joyce Ababio College of Creative Design", "name:en": null, "amenity": "school", "building": null, "operator:type": null, "capacity:persons": null, "addr:full": null, "addr:city": null, "source": null, "osm_id": 7213779547, "osm_type": "nodes" }, "geometry": { "type": "Point", "coordinates": [ -0.1858073, 5.5502408 ] } },
{ "type": "Feature", "properties": { "name": "Diocesan Ministerial Training School", "name:en": null, "amenity": "school", "building": null, "operator:type": null, "capacity:persons": null, "addr:full": null, "addr:city": null, "source": null, "osm_id": 7213764384, "osm_type": "nodes" }, "geometry": { "type": "Point", "coordinates": [ -0.1864903, 5.5498353 ] } },
{ "type": "Feature", "properties": { "name": "Buzzy Kids Montessori School", "name:en": null, "amenity": "school", "building": null, "operator:type": null, "capacity:persons": null, "addr:full": null, "addr:city": null, "source": null, "osm_id": 4741326738, "osm_type": "nodes" }, "geometry": { "type": "Point", "coordinates": [ -0.1688801, 5.6468352 ] } },
{ "type": "Feature", "properties": { "name": null, "name:en": null, "amenity": "school", "building": null, "operator:type": null, "capacity:persons": null, "addr:full": null, "addr:city": null, "source": null, "osm_id": 6071774983, "osm_type": "nodes" }, "geometry": { "type": "Point", "coordinates": [ -0.2466765, 5.6094716 ] } },
{ "type": "Feature", "properties": { "name": "Kingsclass Senior High School", "name:en": null, "amenity": "school", "building": null, "operator:type": null, "capacity:persons": null, "addr:full": null, "addr:city": "Accra", "source": "Open Cities Accra / GARID- Field Survey", "osm_id": 6283465042, "osm_type": "nodes" }, "geometry": { "type": "Point", "coordinates": [ -0.2368145, 5.6101951 ] } },
{ "type": "Feature", "properties": { "name": "Dannaks", "name:en": null, "amenity": "school", "building": null, "operator:type": null, "capacity:persons": null, "addr:full": null, "addr:city": null, "source": null, "osm_id": 6908461201, "osm_type": "nodes" }, "geometry": { "type": "Point", "coordinates": [ -0.0999704, 5.5882482 ] } },
{ "type": "Feature", "properties": { "name": "Lincoln International School", "name:en": null, "amenity": "school", "building": null, "operator:type": null, "capacity:persons": null, "addr:full": null, "addr:city": null, "source": null, "osm_id": 6927333624, "osm_type": "nodes" }, "geometry": { "type": "Point", "coordinates": [ -0.1004786, 5.5896778 ] } },
{ "type": "Feature", "properties": { "name": "Morning Glory School", "name:en": null, "amenity": "school", "building": null, "operator:type": null, "capacity:persons": null, "addr:full": null, "addr:city": null, "source": null, "osm_id": 6856675501, "osm_type": "nodes" }, "geometry": { "type": "Point", "coordinates": [ -0.095643, 5.595612 ] } },
{ "type": "Feature", "properties": { "name": "Glorious Garden Academy", "name:en": null, "amenity": "school", "building": null, "operator:type": null, "capacity:persons": null, "addr:full": null, "addr:city": null, "source": null, "osm_id": 6577743149, "osm_type": "nodes" }, "geometry": { "type": "Point", "coordinates": [ -0.0929471, 5.6080417 ] } },
{ "type": "Feature", "properties": { "name": "Queen's International School", "name:en": null, "amenity": "school", "building": null, "operator:type": null, "capacity:persons": null, "addr:full": null, "addr:city": null, "source": null, "osm_id": 4018362075, "osm_type": "nodes" }, "geometry": { "type": "Point", "coordinates": [ -0.1480143, 5.6375238 ] } },
{ "type": "Feature", "properties": { "name": "Living Proof Montessori", "name:en": null, "amenity": "school", "building": null, "operator:type": null, "capacity:persons": null, "addr:full": null, "addr:city": null, "source": null, "osm_id": 5757211366, "osm_type": "nodes" }, "geometry": { "type": "Point", "coordinates": [ -0.3418824, 5.558399 ] } },
{ "type": "Feature", "properties": { "name": "IPMC Main Campus", "name:en": null, "amenity": "school", "building": null, "operator:type": null, "capacity:persons": null, "addr:full": null, "addr:city": null, "source": null, "osm_id": 6387864300, "osm_type": "nodes" }, "geometry": { "type": "Point", "coordinates": [ -0.2148048, 5.5677534 ] } },
{ "type": "Feature", "properties": { "name": "Brain Hill International School", "name:en": null, "amenity": "school", "building": null, "operator:type": null, "capacity:persons": null, "addr:full": null, "addr:city": null, "source": null, "osm_id": 5727755722, "osm_type": "nodes" }, "geometry": { "type": "Point", "coordinates": [ -0.158776, 5.6305075 ] } },
{ "type": "Feature", "properties": { "name": "Baobab Academy", "name:en": null, "amenity": "school", "building": null, "operator:type": null, "capacity:persons": null, "addr:full": null, "addr:city": null, "source": null, "osm_id": 4305848487, "osm_type": "nodes" }, "geometry": { "type": "Point", "coordinates": [ -0.2097473, 5.565416 ] } },
{ "type": "Feature", "properties": { "name": "Kingship", "name:en": null, "amenity": "school", "building": null, "operator:type": null, "capacity:persons": null, "addr:full": null, "addr:city": null, "source": null, "osm_id": 6115647110, "osm_type": "nodes" }, "geometry": { "type": "Point", "coordinates": [ 0.7927089, 6.1142541 ] } },
{ "type": "Feature", "properties": { "name": null, "name:en": null, "amenity": "school", "building": null, "operator:type": null, "capacity:persons": null, "addr:full": null, "addr:city": null, "source": null, "osm_id": 3997291245, "osm_type": "nodes" }, "geometry": { "type": "Point", "coordinates": [ -0.0174952, 9.4447895 ] } },
{ "type": "Feature", "properties": { "name": null, "name:en": null, "amenity": "school", "building": null, "operator:type": null, "capacity:persons": null, "addr:full": null, "addr:city": null, "source": null, "osm_id": 6548944640, "osm_type": "nodes" }, "geometry": { "type": "Point", "coordinates": [ -0.0066073, 9.3709747 ] } },
{ "type": "Feature", "properties": { "name": null, "name:en": null, "amenity": "school", "building": null, "operator:type": null, "capacity:persons": null, "addr:full": null, "addr:city": null, "source": null, "osm_id": 6548966418, "osm_type": "nodes" }, "geometry": { "type": "Point", "coordinates": [ -0.0051402, 9.3695336 ] } },
{ "type": "Feature", "properties": { "name": "Ecole Franco-Arabe", "name:en": null, "amenity": "school", "building": null, "operator:type": null, "capacity:persons": null, "addr:full": null, "addr:city": null, "source": null, "osm_id": 8787238189, "osm_type": "nodes" }, "geometry": { "type": "Point", "coordinates": [ -0.0142372, 11.1159697 ] } },
{ "type": "Feature", "properties": { "name": "Presbyterian Primary School, Somanyia", "name:en": null, "amenity": "school", "building": null, "operator:type": null, "capacity:persons": null, "addr:full": null, "addr:city": null, "source": null, "osm_id": 8515506720, "osm_type": "nodes" }, "geometry": { "type": "Point", "coordinates": [ -0.1672761, 6.9974406 ] } },
{ "type": "Feature", "properties": { "name": null, "name:en": null, "amenity": "school", "building": null, "operator:type": null, "capacity:persons": null, "addr:full": null, "addr:city": null, "source": null, "osm_id": 8521365672, "osm_type": "nodes" }, "geometry": { "type": "Point", "coordinates": [ -0.1975979, 6.7573612 ] } },
{ "type": "Feature", "properties": { "name": null, "name:en": null, "amenity": "school", "building": null, "operator:type": null, "capacity:persons": null, "addr:full": null, "addr:city": null, "source": null, "osm_id": 5571049464, "osm_type": "nodes" }, "geometry": { "type": "Point", "coordinates": [ -0.1512203, 6.1829755 ] } },
{ "type": "Feature", "properties": { "name": null, "name:en": null, "amenity": "school", "building": null, "operator:type": null, "capacity:persons": null, "addr:full": null, "addr:city": null, "source": null, "osm_id": 4167509944, "osm_type": "nodes" }, "geometry": { "type": "Point", "coordinates": [ -0.1842168, 6.1252604 ] } },
{ "type": "Feature", "properties": { "name": "Azza M/A Basic School", "name:en": null, "amenity": "school", "building": null, "operator:type": null, "capacity:persons": null, "addr:full": null, "addr:city": null, "source": null, "osm_id": 6298695001, "osm_type": "nodes" }, "geometry": { "type": "Point", "coordinates": [ -0.1543329, 6.1205279 ] } },
{ "type": "Feature", "properties": { "name": "Aberewankor L/A Basic School", "name:en": null, "amenity": "school", "building": null, "operator:type": null, "capacity:persons": null, "addr:full": null, "addr:city": null, "source": null, "osm_id": 6298697864, "osm_type": "nodes" }, "geometry": { "type": "Point", "coordinates": [ -0.1844515, 6.125497 ] } },
{ "type": "Feature", "properties": { "name": "Mmradan JHS", "name:en": null, "amenity": "school", "building": null, "operator:type": null, "capacity:persons": null, "addr:full": null, "addr:city": null, "source": null, "osm_id": 8515506736, "osm_type": "nodes" }, "geometry": { "type": "Point", "coordinates": [ -0.2158462, 7.0193188 ] } },
{ "type": "Feature", "properties": { "name": "Mmradan Primary", "name:en": null, "amenity": "school", "building": null, "operator:type": null, "capacity:persons": null, "addr:full": null, "addr:city": null, "source": null, "osm_id": 8515455227, "osm_type": "nodes" }, "geometry": { "type": "Point", "coordinates": [ -0.2167752, 7.0202311 ] } },
{ "type": "Feature", "properties": { "name": null, "name:en": null, "amenity": "school", "building": null, "operator:type": null, "capacity:persons": null, "addr:full": null, "addr:city": null, "source": null, "osm_id": 8520745425, "osm_type": "nodes" }, "geometry": { "type": "Point", "coordinates": [ -0.2307753, 6.7596153 ] } },
{ "type": "Feature", "properties": { "name": "Bright School of Diploma and Computer School", "name:en": null, "amenity": "school", "building": null, "operator:type": null, "capacity:persons": null, "addr:full": null, "addr:city": null, "source": null, "osm_id": 8521414653, "osm_type": "nodes" }, "geometry": { "type": "Point", "coordinates": [ -0.2568839, 6.9290024 ] } },
{ "type": "Feature", "properties": { "name": "St Fidelis Senior High Technical School", "name:en": null, "amenity": "school", "building": null, "operator:type": null, "capacity:persons": null, "addr:full": null, "addr:city": null, "source": null, "osm_id": 8521552600, "osm_type": "nodes" }, "geometry": { "type": "Point", "coordinates": [ -0.2549323, 6.9331173 ] } },
{ "type": "Feature", "properties": { "name": null, "name:en": null, "amenity": "school", "building": null, "operator:type": null, "capacity:persons": null, "addr:full": null, "addr:city": null, "source": null, "osm_id": 8527679004, "osm_type": "nodes" }, "geometry": { "type": "Point", "coordinates": [ -0.3488697, 6.737749 ] } },
{ "type": "Feature", "properties": { "name": "Presbyterian Senior High School, Osino", "name:en": null, "amenity": "school", "building": null, "operator:type": null, "capacity:persons": null, "addr:full": null, "addr:city": null, "source": null, "osm_id": 10691807641, "osm_type": "nodes" }, "geometry": { "type": "Point", "coordinates": [ -0.4784514, 6.3325025 ] } },
{ "type": "Feature", "properties": { "name": null, "name:en": null, "amenity": "school", "building": null, "operator:type": null, "capacity:persons": null, "addr:full": null, "addr:city": null, "source": null, "osm_id": 6548990334, "osm_type": "nodes" }, "geometry": { "type": "Point", "coordinates": [ -0.0373347, 9.5842978 ] } },
{ "type": "Feature", "properties": { "name": null, "name:en": null, "amenity": "school", "building": null, "operator:type": null, "capacity:persons": null, "addr:full": null, "addr:city": null, "source": null, "osm_id": 6546838950, "osm_type": "nodes" }, "geometry": { "type": "Point", "coordinates": [ -0.0852644, 10.1598539 ] } },
{ "type": "Feature", "properties": { "name": null, "name:en": null, "amenity": "school", "building": null, "operator:type": null, "capacity:persons": null, "addr:full": null, "addr:city": null, "source": null, "osm_id": 6546836547, "osm_type": "nodes" }, "geometry": { "type": "Point", "coordinates": [ -0.0871895, 10.0749801 ] } },
{ "type": "Feature", "properties": { "name": null, "name:en": null, "amenity": "school", "building": null, "operator:type": null, "capacity:persons": null, "addr:full": null, "addr:city": null, "source": null, "osm_id": 6548940578, "osm_type": "nodes" }, "geometry": { "type": "Point", "coordinates": [ -0.111909, 9.7536192 ] } },
{ "type": "Feature", "properties": { "name": null, "name:en": null, "amenity": "school", "building": null, "operator:type": null, "capacity:persons": null, "addr:full": null, "addr:city": null, "source": null, "osm_id": 6546923859, "osm_type": "nodes" }, "geometry": { "type": "Point", "coordinates": [ -0.1173177, 9.7618075 ] } },
{ "type": "Feature", "properties": { "name": null, "name:en": null, "amenity": "school", "building": null, "operator:type": null, "capacity:persons": null, "addr:full": null, "addr:city": null, "source": null, "osm_id": 6546838951, "osm_type": "nodes" }, "geometry": { "type": "Point", "coordinates": [ -0.2148515, 9.9194991 ] } },
{ "type": "Feature", "properties": { "name": "Cambridge School Complex", "name:en": null, "amenity": "school", "building": null, "operator:type": null, "capacity:persons": null, "addr:full": null, "addr:city": null, "source": null, "osm_id": 6026815435, "osm_type": "nodes" }, "geometry": { "type": "Point", "coordinates": [ -0.2530965, 5.5751505 ] } },
{ "type": "Feature", "properties": { "name": "Queens Girls' Senior High School", "name:en": null, "amenity": "school", "building": null, "operator:type": "public", "capacity:persons": null, "addr:full": null, "addr:city": null, "source": null, "osm_id": 9847825681, "osm_type": "nodes" }, "geometry": { "type": "Point", "coordinates": [ -2.250302, 6.319177 ] } },
{ "type": "Feature", "properties": { "name": null, "name:en": null, "amenity": "school", "building": null, "operator:type": null, "capacity:persons": null, "addr:full": null, "addr:city": null, "source": null, "osm_id": 5605930781, "osm_type": "nodes" }, "geometry": { "type": "Point", "coordinates": [ -0.0519437, 7.7932659 ] } },
{ "type": "Feature", "properties": { "name": "School of Engineering Sciences", "name:en": null, "amenity": "college", "building": null, "operator:type": null, "capacity:persons": null, "addr:full": null, "addr:city": null, "source": null, "osm_id": 9659871717, "osm_type": "nodes" }, "geometry": { "type": "Point", "coordinates": [ -0.1830511, 5.6555123 ] } },
{ "type": "Feature", "properties": { "name": "Chartered Institute of Bankers (Ghana)", "name:en": null, "amenity": "college", "building": null, "operator:type": null, "capacity:persons": null, "addr:full": null, "addr:city": null, "source": null, "osm_id": 5303626454, "osm_type": "nodes" }, "geometry": { "type": "Point", "coordinates": [ -0.1703833, 5.6440692 ] } },
{ "type": "Feature", "properties": { "name": "School of Biomedical and Allied Health Sciences", "name:en": null, "amenity": "college", "building": null, "operator:type": null, "capacity:persons": null, "addr:full": null, "addr:city": null, "source": null, "osm_id": 6417820101, "osm_type": "nodes" }, "geometry": { "type": "Point", "coordinates": [ -0.2283659, 5.5378237 ] } },
{ "type": "Feature", "properties": { "name": "Laweh Open University", "name:en": null, "amenity": "university", "building": null, "operator:type": null, "capacity:persons": null, "addr:full": null, "addr:city": null, "source": null, "osm_id": 6680642472, "osm_type": "nodes" }, "geometry": { "type": "Point", "coordinates": [ -0.0862406, 5.6086802 ] } },
{ "type": "Feature", "properties": { "name": "Crystal Cuddle Montessori", "name:en": null, "amenity": "kindergarten", "building": null, "operator:type": null, "capacity:persons": null, "addr:full": null, "addr:city": null, "source": null, "osm_id": 7572721308, "osm_type": "nodes" }, "geometry": { "type": "Point", "coordinates": [ -0.1343237, 5.5981515 ] } },
{ "type": "Feature", "properties": { "name": "St Gregory World of Kids", "name:en": null, "amenity": "kindergarten", "building": null, "operator:type": null, "capacity:persons": null, "addr:full": null, "addr:city": null, "source": null, "osm_id": 6100970624, "osm_type": "nodes" }, "geometry": { "type": "Point", "coordinates": [ -0.2377723, 5.6060427 ] } },
{ "type": "Feature", "properties": { "name": "Quarters DA Basic", "name:en": null, "amenity": "school", "building": null, "operator:type": null, "capacity:persons": null, "addr:full": null, "addr:city": null, "source": null, "osm_id": 7192724485, "osm_type": "nodes" }, "geometry": { "type": "Point", "coordinates": [ -0.3864728, 7.6653624 ] } },
{ "type": "Feature", "properties": { "name": "Baba DA basic", "name:en": null, "amenity": "school", "building": null, "operator:type": null, "capacity:persons": null, "addr:full": null, "addr:city": null, "source": null, "osm_id": 7193178686, "osm_type": "nodes" }, "geometry": { "type": "Point", "coordinates": [ -0.2827707, 7.6838048 ] } },
{ "type": "Feature", "properties": { "name": "Happy Home Basic School", "name:en": null, "amenity": "school", "building": null, "operator:type": null, "capacity:persons": null, "addr:full": null, "addr:city": null, "source": null, "osm_id": 6164964037, "osm_type": "nodes" }, "geometry": { "type": "Point", "coordinates": [ -0.2503619, 5.6087586 ] } },
{ "type": "Feature", "properties": { "name": "Wassa Atobiase DC School", "name:en": null, "amenity": "school", "building": null, "operator:type": null, "capacity:persons": null, "addr:full": null, "addr:city": null, "source": null, "osm_id": 11931149131, "osm_type": "nodes" }, "geometry": { "type": "Point", "coordinates": [ -1.5503364, 5.3586726 ] } },
{ "type": "Feature", "properties": { "name": "KofoKrom Basic School", "name:en": null, "amenity": "school", "building": null, "operator:type": null, "capacity:persons": null, "addr:full": null, "addr:city": null, "source": null, "osm_id": 6166597808, "osm_type": "nodes" }, "geometry": { "type": "Point", "coordinates": [ -1.7071793, 5.1234699 ] } },
{ "type": "Feature", "properties": { "name": "Wassa Atobiase R/C School", "name:en": null, "amenity": "school", "building": null, "operator:type": null, "capacity:persons": null, "addr:full": null, "addr:city": null, "source": null, "osm_id": 11931143411, "osm_type": "nodes" }, "geometry": { "type": "Point", "coordinates": [ -1.5505616, 5.3581408 ] } },
{ "type": "Feature", "properties": { "name": null, "name:en": null, "amenity": "school", "building": null, "operator:type": null, "capacity:persons": null, "addr:full": null, "addr:city": null, "source": null, "osm_id": 9064999708, "osm_type": "nodes" }, "geometry": { "type": "Point", "coordinates": [ -2.0266967, 5.0056138 ] } },
{ "type": "Feature", "properties": { "name": null, "name:en": null, "amenity": "school", "building": null, "operator:type": null, "capacity:persons": null, "addr:full": null, "addr:city": null, "source": null, "osm_id": 8946848866, "osm_type": "nodes" }, "geometry": { "type": "Point", "coordinates": [ 0.5124595, 7.0098404 ] } },
{ "type": "Feature", "properties": { "name": "Health Regional Training Centre", "name:en": null, "amenity": "school", "building": null, "operator:type": null, "capacity:persons": null, "addr:full": null, "addr:city": null, "source": null, "osm_id": 4722388189, "osm_type": "nodes" }, "geometry": { "type": "Point", "coordinates": [ -1.7135538, 4.9385041 ] } },
{ "type": "Feature", "properties": { "name": "Global Doors International School", "name:en": null, "amenity": "school", "building": null, "operator:type": null, "capacity:persons": null, "addr:full": null, "addr:city": null, "source": null, "osm_id": 12034940431, "osm_type": "nodes" }, "geometry": { "type": "Point", "coordinates": [ -1.0204726, 5.2526896 ] } },
{ "type": "Feature", "properties": { "name": null, "name:en": null, "amenity": "school", "building": null, "operator:type": null, "capacity:persons": null, "addr:full": null, "addr:city": null, "source": null, "osm_id": 7566452088, "osm_type": "nodes" }, "geometry": { "type": "Point", "coordinates": [ 0.5475916, 6.3016324 ] } },
{ "type": "Feature", "properties": { "name": "Jehovah Nissi Basic School", "name:en": null, "amenity": "school", "building": null, "operator:type": null, "capacity:persons": null, "addr:full": null, "addr:city": null, "source": null, "osm_id": 8358989524, "osm_type": "nodes" }, "geometry": { "type": "Point", "coordinates": [ -2.6607956, 5.8830737 ] } },
{ "type": "Feature", "properties": { "name": "Sawla Girls Vocational Institute", "name:en": null, "amenity": "school", "building": null, "operator:type": null, "capacity:persons": null, "addr:full": null, "addr:city": null, "source": null, "osm_id": 8355011933, "osm_type": "nodes" }, "geometry": { "type": "Point", "coordinates": [ -2.3996387, 9.2667209 ] } },
{ "type": "Feature", "properties": { "name": "Acquai Allah D/A JHS", "name:en": null, "amenity": "school", "building": null, "operator:type": null, "capacity:persons": null, "addr:full": null, "addr:city": null, "source": null, "osm_id": 8358989522, "osm_type": "nodes" }, "geometry": { "type": "Point", "coordinates": [ -2.6629349, 5.8832596 ] } },
{ "type": "Feature", "properties": { "name": "St. Ignatius RC School", "name:en": null, "amenity": "school", "building": null, "operator:type": "public", "capacity:persons": null, "addr:full": null, "addr:city": null, "source": null, "osm_id": 4291858014, "osm_type": "nodes" }, "geometry": { "type": "Point", "coordinates": [ -1.7674361, 4.8973795 ] } },
{ "type": "Feature", "properties": { "name": null, "name:en": null, "amenity": "school", "building": null, "operator:type": null, "capacity:persons": null, "addr:full": null, "addr:city": null, "source": null, "osm_id": 8355010540, "osm_type": "nodes" }, "geometry": { "type": "Point", "coordinates": [ -1.4158873, 9.1571039 ] } },
{ "type": "Feature", "properties": { "name": null, "name:en": null, "amenity": "school", "building": null, "operator:type": null, "capacity:persons": null, "addr:full": null, "addr:city": null, "source": null, "osm_id": 7566863785, "osm_type": "nodes" }, "geometry": { "type": "Point", "coordinates": [ 0.5153758, 6.4270348 ] } },
{ "type": "Feature", "properties": { "name": "Mulberies School", "name:en": null, "amenity": "school", "building": null, "operator:type": null, "capacity:persons": null, "addr:full": null, "addr:city": null, "source": null, "osm_id": 12250413381, "osm_type": "nodes" }, "geometry": { "type": "Point", "coordinates": [ -0.1741666, 5.7128739 ] } },
{ "type": "Feature", "properties": { "name": null, "name:en": null, "amenity": "school", "building": null, "operator:type": null, "capacity:persons": null, "addr:full": null, "addr:city": null, "source": null, "osm_id": 8927726435, "osm_type": "nodes" }, "geometry": { "type": "Point", "coordinates": [ 0.5652458, 7.1981473 ] } },
{ "type": "Feature", "properties": { "name": null, "name:en": null, "amenity": "school", "building": null, "operator:type": null, "capacity:persons": null, "addr:full": null, "addr:city": null, "source": null, "osm_id": 8927728780, "osm_type": "nodes" }, "geometry": { "type": "Point", "coordinates": [ 0.5448034, 7.2019255 ] } },
{ "type": "Feature", "properties": { "name": "E.P. Primary School (B)", "name:en": null, "amenity": "school", "building": null, "operator:type": null, "capacity:persons": null, "addr:full": null, "addr:city": null, "source": null, "osm_id": 2319518770, "osm_type": "nodes" }, "geometry": { "type": "Point", "coordinates": [ 0.4760124, 7.1571487 ] } },
{ "type": "Feature", "properties": { "name": "St Peter Claver Cluster of Schools", "name:en": null, "amenity": "school", "building": null, "operator:type": null, "capacity:persons": null, "addr:full": null, "addr:city": null, "source": null, "osm_id": 8620730756, "osm_type": "nodes" }, "geometry": { "type": "Point", "coordinates": [ 0.4731059, 7.4142745 ] } },
{ "type": "Feature", "properties": { "name": null, "name:en": null, "amenity": "school", "building": null, "operator:type": null, "capacity:persons": null, "addr:full": null, "addr:city": null, "source": null, "osm_id": 4182850464, "osm_type": "nodes" }, "geometry": { "type": "Point", "coordinates": [ 0.4890548, 6.9347933 ] } },
{ "type": "Feature", "properties": { "name": "Fodome Woe/Agbetsido Municipal Assembly Basic School", "name:en": null, "amenity": "school", "building": null, "operator:type": null, "capacity:persons": null, "addr:full": null, "addr:city": null, "source": null, "osm_id": 8917491170, "osm_type": "nodes" }, "geometry": { "type": "Point", "coordinates": [ 0.5164285, 7.0709386 ] } },
{ "type": "Feature", "properties": { "name": null, "name:en": null, "amenity": "school", "building": null, "operator:type": null, "capacity:persons": null, "addr:full": null, "addr:city": null, "source": null, "osm_id": 8614117402, "osm_type": "nodes" }, "geometry": { "type": "Point", "coordinates": [ 0.5086619, 7.3033257 ] } },
{ "type": "Feature", "properties": { "name": "École Évangélique", "name:en": null, "amenity": "school", "building": null, "operator:type": null, "capacity:persons": null, "addr:full": null, "addr:city": null, "source": null, "osm_id": 9245176146, "osm_type": "nodes" }, "geometry": { "type": "Point", "coordinates": [ 1.0550415, 6.2454624 ] } },
{ "type": "Feature", "properties": { "name": "Penyi No. 2", "name:en": null, "amenity": "school", "building": null, "operator:type": null, "capacity:persons": null, "addr:full": null, "addr:city": null, "source": null, "osm_id": 6564878160, "osm_type": "nodes" }, "geometry": { "type": "Point", "coordinates": [ 1.0421797, 6.2201252 ] } },
{ "type": "Feature", "properties": { "name": "EPP Nakpare", "name:en": null, "amenity": "school", "building": null, "operator:type": null, "capacity:persons": null, "addr:full": null, "addr:city": null, "source": null, "osm_id": 9218949290, "osm_type": "nodes" }, "geometry": { "type": "Point", "coordinates": [ 0.4104498, 10.0776401 ] } },
{ "type": "Feature", "properties": { "name": null, "name:en": null, "amenity": "school", "building": null, "operator:type": null, "capacity:persons": null, "addr:full": null, "addr:city": null, "source": null, "osm_id": 4915711154, "osm_type": "nodes" }, "geometry": { "type": "Point", "coordinates": [ -1.7601568, 6.0382938 ] } },
{ "type": "Feature", "properties": { "name": null, "name:en": null, "amenity": "school", "building": null, "operator:type": null, "capacity:persons": null, "addr:full": null, "addr:city": null, "source": null, "osm_id": 6091147312, "osm_type": "nodes" }, "geometry": { "type": "Point", "coordinates": [ -2.0246928, 7.0437459 ] } },
{ "type": "Feature", "properties": { "name": null, "name:en": null, "amenity": "school", "building": null, "operator:type": null, "capacity:persons": null, "addr:full": null, "addr:city": null, "source": null, "osm_id": 6091147314, "osm_type": "nodes" }, "geometry": { "type": "Point", "coordinates": [ -1.8652219, 6.8443005 ] } },
{ "type": "Feature", "properties": { "name": null, "name:en": null, "amenity": "school", "building": null, "operator:type": null, "capacity:persons": null, "addr:full": null, "addr:city": null, "source": null, "osm_id": 6091147528, "osm_type": "nodes" }, "geometry": { "type": "Point", "coordinates": [ -1.7680419, 6.7556076 ] } },
{ "type": "Feature", "properties": { "name": null, "name:en": null, "amenity": "school", "building": null, "operator:type": null, "capacity:persons": null, "addr:full": null, "addr:city": null, "source": null, "osm_id": 6091147451, "osm_type": "nodes" }, "geometry": { "type": "Point", "coordinates": [ -1.7250903, 6.7235951 ] } },
{ "type": "Feature", "properties": { "name": "AIMS Ghana", "name:en": null, "amenity": "school", "building": null, "operator:type": null, "capacity:persons": null, "addr:full": null, "addr:city": null, "source": null, "osm_id": 3819267397, "osm_type": "nodes" }, "geometry": { "type": "Point", "coordinates": [ -1.1438145, 5.1675727 ] } },
{ "type": "Feature", "properties": { "name": "Nyagbo Odumase Basic Schools", "name:en": null, "amenity": "school", "building": null, "operator:type": null, "capacity:persons": null, "addr:full": null, "addr:city": null, "source": null, "osm_id": 3802723684, "osm_type": "nodes" }, "geometry": { "type": "Point", "coordinates": [ 0.3713242, 6.7981792 ] } },
{ "type": "Feature", "properties": { "name": "Ve Gbodome Primary School", "name:en": null, "amenity": "school", "building": null, "operator:type": null, "capacity:persons": null, "addr:full": null, "addr:city": null, "source": null, "osm_id": 3802641881, "osm_type": "nodes" }, "geometry": { "type": "Point", "coordinates": [ 0.4586446, 6.9636443 ] } },
{ "type": "Feature", "properties": { "name": "Shalom Angels Montessori School", "name:en": null, "amenity": "school", "building": null, "operator:type": null, "capacity:persons": null, "addr:full": null, "addr:city": "Accra Ghana", "source": null, "osm_id": 8334051477, "osm_type": "nodes" }, "geometry": { "type": "Point", "coordinates": [ -0.3150479, 5.5617478 ] } },
{ "type": "Feature", "properties": { "name": "Cita Preparatory and Junior High School", "name:en": null, "amenity": "school", "building": null, "operator:type": null, "capacity:persons": null, "addr:full": null, "addr:city": null, "source": null, "osm_id": 4964041128, "osm_type": "nodes" }, "geometry": { "type": "Point", "coordinates": [ -0.9951436, 5.9245017 ] } },
{ "type": "Feature", "properties": { "name": "Cita Junior High School", "name:en": null, "amenity": "school", "building": null, "operator:type": null, "capacity:persons": null, "addr:full": null, "addr:city": null, "source": null, "osm_id": 4964043422, "osm_type": "nodes" }, "geometry": { "type": "Point", "coordinates": [ -0.9949152, 5.9240772 ] } },
{ "type": "Feature", "properties": { "name": "Danko Primary School", "name:en": null, "amenity": "school", "building": null, "operator:type": null, "capacity:persons": null, "addr:full": null, "addr:city": null, "source": null, "osm_id": 12566750278, "osm_type": "nodes" }, "geometry": { "type": "Point", "coordinates": [ -2.4721974, 10.0322852 ] } },
{ "type": "Feature", "properties": { "name": "Tarkwa Midwifery Training School", "name:en": null, "amenity": "school", "building": null, "operator:type": null, "capacity:persons": null, "addr:full": null, "addr:city": null, "source": "Bing; survey", "osm_id": 3815384194, "osm_type": "nodes" }, "geometry": { "type": "Point", "coordinates": [ -1.9863147, 5.3078682 ] } },
{ "type": "Feature", "properties": { "name": "Department of Mathematics", "name:en": null, "amenity": "school", "building": null, "operator:type": null, "capacity:persons": null, "addr:full": null, "addr:city": null, "source": null, "osm_id": 9659847617, "osm_type": "nodes" }, "geometry": { "type": "Point", "coordinates": [ -0.184413, 5.6538762 ] } },
{ "type": "Feature", "properties": { "name": "Cape Coast Worker's College", "name:en": null, "amenity": "college", "building": null, "operator:type": null, "capacity:persons": null, "addr:full": null, "addr:city": null, "source": null, "osm_id": 6131453685, "osm_type": "nodes" }, "geometry": { "type": "Point", "coordinates": [ -1.2795639, 5.1037957 ] } },
{ "type": "Feature", "properties": { "name": "Radford University College", "name:en": null, "amenity": "college", "building": null, "operator:type": null, "capacity:persons": null, "addr:full": null, "addr:city": null, "source": null, "osm_id": 3802485229, "osm_type": "nodes" }, "geometry": { "type": "Point", "coordinates": [ -0.1714394, 5.6378571 ] } },
{ "type": "Feature", "properties": { "name": "Experimental kindergarten", "name:en": null, "amenity": "kindergarten", "building": null, "operator:type": null, "capacity:persons": null, "addr:full": null, "addr:city": null, "source": null, "osm_id": 8189113683, "osm_type": "nodes" }, "geometry": { "type": "Point", "coordinates": [ -2.8644864, 5.809906 ] } },
{ "type": "Feature", "properties": { "name": "The Royals Prestige Child School", "name:en": null, "amenity": "kindergarten", "building": null, "operator:type": null, "capacity:persons": null, "addr:full": null, "addr:city": null, "source": null, "osm_id": 6036653466, "osm_type": "nodes" }, "geometry": { "type": "Point", "coordinates": [ -1.5845098, 6.6873806 ] } },
{ "type": "Feature", "properties": { "name": "Twinkle Tots International School", "name:en": null, "amenity": "kindergarten", "building": null, "operator:type": null, "capacity:persons": null, "addr:full": null, "addr:city": null, "source": null, "osm_id": 1775866915, "osm_type": "nodes" }, "geometry": { "type": "Point", "coordinates": [ -0.1667873, 5.5829324 ] } },
{ "type": "Feature", "properties": { "name": "Tafi Agome Basic School", "name:en": null, "amenity": "school", "building": null, "operator:type": null, "capacity:persons": null, "addr:full": null, "addr:city": null, "source": null, "osm_id": 3802723685, "osm_type": "nodes" }, "geometry": { "type": "Point", "coordinates": [ 0.393255, 6.849136 ] } },
{ "type": "Feature", "properties": { "name": "Springforth International school", "name:en": null, "amenity": "school", "building": null, "operator:type": null, "capacity:persons": null, "addr:full": null, "addr:city": null, "source": null, "osm_id": 1801451389, "osm_type": "nodes" }, "geometry": { "type": "Point", "coordinates": [ -0.1273595, 5.6517446 ] } },
{ "type": "Feature", "properties": { "name": "SDA School", "name:en": null, "amenity": "school", "building": null, "operator:type": null, "capacity:persons": null, "addr:full": null, "addr:city": null, "source": null, "osm_id": 1791592416, "osm_type": "nodes" }, "geometry": { "type": "Point", "coordinates": [ -0.8313309, 9.3999825 ] } },
{ "type": "Feature", "properties": { "name": "EKA Preparatory School", "name:en": null, "amenity": "school", "building": null, "operator:type": null, "capacity:persons": null, "addr:full": null, "addr:city": null, "source": null, "osm_id": 9765932532, "osm_type": "nodes" }, "geometry": { "type": "Point", "coordinates": [ -2.2330012, 6.484637 ] } },
{ "type": "Feature", "properties": { "name": "Cape Coast Technical University Basic School", "name:en": null, "amenity": "school", "building": null, "operator:type": "private", "capacity:persons": null, "addr:full": null, "addr:city": null, "source": null, "osm_id": 12273154703, "osm_type": "nodes" }, "geometry": { "type": "Point", "coordinates": [ -1.2743374, 5.1494895 ] } },
{ "type": "Feature", "properties": { "name": null, "name:en": null, "amenity": "school", "building": null, "operator:type": null, "capacity:persons": null, "addr:full": null, "addr:city": null, "source": null, "osm_id": 6032341071, "osm_type": "nodes" }, "geometry": { "type": "Point", "coordinates": [ 0.6750991, 5.949339 ] } },
{ "type": "Feature", "properties": { "name": "Catholic Experimental Primary", "name:en": null, "amenity": "school", "building": null, "operator:type": null, "capacity:persons": null, "addr:full": null, "addr:city": null, "source": null, "osm_id": 8189100811, "osm_type": "nodes" }, "geometry": { "type": "Point", "coordinates": [ -2.8644918, 5.8093984 ] } },
{ "type": "Feature", "properties": { "name": "E.P. Basic Schools", "name:en": null, "amenity": "school", "building": null, "operator:type": null, "capacity:persons": null, "addr:full": null, "addr:city": null, "source": null, "osm_id": 3793455580, "osm_type": "nodes" }, "geometry": { "type": "Point", "coordinates": [ 0.3851299, 6.731967 ] } },
{ "type": "Feature", "properties": { "name": "Saviefe Deme Schools", "name:en": null, "amenity": "school", "building": null, "operator:type": null, "capacity:persons": null, "addr:full": null, "addr:city": null, "source": null, "osm_id": 3793455586, "osm_type": "nodes" }, "geometry": { "type": "Point", "coordinates": [ 0.4162444, 6.7740075 ] } },
{ "type": "Feature", "properties": { "name": "Romma Nursery/Prep/JHS", "name:en": null, "amenity": "school", "building": null, "operator:type": null, "capacity:persons": null, "addr:full": null, "addr:city": null, "source": null, "osm_id": 9157007224, "osm_type": "nodes" }, "geometry": { "type": "Point", "coordinates": [ -0.2524283, 5.5898788 ] } },
{ "type": "Feature", "properties": { "name": "Kuffour Camp D/A Basic School", "name:en": null, "amenity": "school", "building": null, "operator:type": null, "capacity:persons": null, "addr:full": null, "addr:city": null, "source": null, "osm_id": 9765912812, "osm_type": "nodes" }, "geometry": { "type": "Point", "coordinates": [ -2.2411911, 6.4788378 ] } },
{ "type": "Feature", "properties": { "name": "Alpha Beta Christian College", "name:en": null, "amenity": "school", "building": null, "operator:type": null, "capacity:persons": null, "addr:full": null, "addr:city": null, "source": null, "osm_id": 1000064915, "osm_type": "nodes" }, "geometry": { "type": "Point", "coordinates": [ -0.2640148, 5.5493916 ] } },
{ "type": "Feature", "properties": { "name": null, "name:en": null, "amenity": "school", "building": null, "operator:type": null, "capacity:persons": null, "addr:full": null, "addr:city": null, "source": null, "osm_id": 6032339453, "osm_type": "nodes" }, "geometry": { "type": "Point", "coordinates": [ 0.9129295, 5.7985338 ] } },
{ "type": "Feature", "properties": { "name": "M/A JHS", "name:en": null, "amenity": "school", "building": null, "operator:type": null, "capacity:persons": null, "addr:full": null, "addr:city": null, "source": null, "osm_id": 8189113684, "osm_type": "nodes" }, "geometry": { "type": "Point", "coordinates": [ -2.8644557, 5.8101782 ] } },
{ "type": "Feature", "properties": { "name": "Roman Catholic JHS", "name:en": null, "amenity": "school", "building": null, "operator:type": null, "capacity:persons": null, "addr:full": null, "addr:city": null, "source": null, "osm_id": 8189114901, "osm_type": "nodes" }, "geometry": { "type": "Point", "coordinates": [ -2.864129, 5.8094443 ] } },
{ "type": "Feature", "properties": { "name": "Kokuma Basic School", "name:en": null, "amenity": "school", "building": null, "operator:type": null, "capacity:persons": null, "addr:full": null, "addr:city": null, "source": null, "osm_id": 8004352485, "osm_type": "nodes" }, "geometry": { "type": "Point", "coordinates": [ -1.7585544, 7.8291989 ] } },
{ "type": "Feature", "properties": { "name": "Commey Memorial JHS", "name:en": null, "amenity": "school", "building": null, "operator:type": null, "capacity:persons": null, "addr:full": null, "addr:city": null, "source": null, "osm_id": 8172169050, "osm_type": "nodes" }, "geometry": { "type": "Point", "coordinates": [ -2.8197846, 5.8239811 ] } },
{ "type": "Feature", "properties": { "name": "Messiah International School, Akuse", "name:en": null, "amenity": "school", "building": null, "operator:type": null, "capacity:persons": null, "addr:full": null, "addr:city": null, "source": null, "osm_id": 9895395244, "osm_type": "nodes" }, "geometry": { "type": "Point", "coordinates": [ 0.1328451, 6.1008797 ] } },
{ "type": "Feature", "properties": { "name": null, "name:en": null, "amenity": "school", "building": null, "operator:type": null, "capacity:persons": null, "addr:full": null, "addr:city": null, "source": null, "osm_id": 8201474517, "osm_type": "nodes" }, "geometry": { "type": "Point", "coordinates": [ 0.7394433, 6.4186822 ] } },
{ "type": "Feature", "properties": { "name": null, "name:en": null, "amenity": "school", "building": null, "operator:type": null, "capacity:persons": null, "addr:full": null, "addr:city": null, "source": null, "osm_id": 8201474319, "osm_type": "nodes" }, "geometry": { "type": "Point", "coordinates": [ 0.7260612, 6.4419476 ] } },
{ "type": "Feature", "properties": { "name": "Apkokofe Primary", "name:en": null, "amenity": "school", "building": null, "operator:type": null, "capacity:persons": null, "addr:full": null, "addr:city": null, "source": null, "osm_id": 8201474320, "osm_type": "nodes" }, "geometry": { "type": "Point", "coordinates": [ 0.72498, 6.4823292 ] } },
{ "type": "Feature", "properties": { "name": "Delcam Senior High School", "name:en": null, "amenity": "school", "building": null, "operator:type": null, "capacity:persons": null, "addr:full": null, "addr:city": null, "source": null, "osm_id": 6016629600, "osm_type": "nodes" }, "geometry": { "type": "Point", "coordinates": [ -0.1702485, 5.7065864 ] } },
{ "type": "Feature", "properties": { "name": "Roman Catholic Primary", "name:en": null, "amenity": "school", "building": null, "operator:type": null, "capacity:persons": null, "addr:full": null, "addr:city": null, "source": null, "osm_id": 8189088704, "osm_type": "nodes" }, "geometry": { "type": "Point", "coordinates": [ -2.8644636, 5.8086438 ] } },
{ "type": "Feature", "properties": { "name": "Swedru International School (SWIS)", "name:en": null, "amenity": "school", "building": null, "operator:type": null, "capacity:persons": null, "addr:full": null, "addr:city": null, "source": null, "osm_id": 1673705810, "osm_type": "nodes" }, "geometry": { "type": "Point", "coordinates": [ -0.6808278, 5.5412129 ] } },