{
"type": "FeatureCollection",
"name": "hotosm_gha_health_facilities_points_geojson",
"features": [
{ "type": "Feature", "properties": { "name": "NEUROCARE SPECIALIST SERVICE", "name:en": null, "amenity": "hospital", "building": null, "healthcare": null, "healthcare:speciality": null, "operator:type": null, "capacity:persons": null, "addr:full": null, "addr:city": null, "source": null, "osm_id": 12246425065, "osm_type": "nodes" }, "geometry": { "type": "Point", "coordinates": [ -1.6425177, 6.6481752 ] } },
{ "type": "Feature", "properties": { "name": "Solace Hospital", "name:en": null, "amenity": "clinic", "building": null, "healthcare": null, "healthcare:speciality": null, "operator:type": null, "capacity:persons": null, "addr:full": null, "addr:city": null, "source": null, "osm_id": 4400481802, "osm_type": "nodes" }, "geometry": { "type": "Point", "coordinates": [ -0.0281321, 5.6784823 ] } },
{ "type": "Feature", "properties": { "name": null, "name:en": null, "amenity": "doctors", "building": null, "healthcare": null, "healthcare:speciality": null, "operator:type": null, "capacity:persons": null, "addr:full": null, "addr:city": null, "source": null, "osm_id": 5920361460, "osm_type": "nodes" }, "geometry": { "type": "Point", "coordinates": [ -0.0258781, 5.6844419 ] } },
{ "type": "Feature", "properties": { "name": "Pharmacy Relics", "name:en": null, "amenity": "pharmacy", "building": null, "healthcare": null, "healthcare:speciality": null, "operator:type": null, "capacity:persons": null, "addr:full": null, "addr:city": null, "source": null, "osm_id": 6256580101, "osm_type": "nodes" }, "geometry": { "type": "Point", "coordinates": [ -0.255391, 6.0918788 ] } },
{ "type": "Feature", "properties": { "name": "Donkorkrom Presbyterian Hospital", "name:en": null, "amenity": "hospital", "building": null, "healthcare": "hospital", "healthcare:speciality": null, "operator:type": null, "capacity:persons": null, "addr:full": "P.O. BOX 19", "addr:city": null, "source": null, "osm_id": 8355047237, "osm_type": "nodes" }, "geometry": { "type": "Point", "coordinates": [ -0.0767851, 7.0486365 ] } },
{ "type": "Feature", "properties": { "name": "Mizfred Pharmacy", "name:en": null, "amenity": "pharmacy", "building": null, "healthcare": null, "healthcare:speciality": null, "operator:type": null, "capacity:persons": null, "addr:full": null, "addr:city": null, "source": null, "osm_id": 10246647004, "osm_type": "nodes" }, "geometry": { "type": "Point", "coordinates": [ -0.1832644, 5.7148579 ] } },
{ "type": "Feature", "properties": { "name": "All Care Medical Center", "name:en": null, "amenity": "clinic", "building": null, "healthcare": "clinic", "healthcare:speciality": null, "operator:type": null, "capacity:persons": null, "addr:full": null, "addr:city": null, "source": null, "osm_id": 3802490268, "osm_type": "nodes" }, "geometry": { "type": "Point", "coordinates": [ -0.0149194, 5.7080264 ] } },
{ "type": "Feature", "properties": { "name": "Gap Pharmacy", "name:en": "Gap Pharmacy", "amenity": "pharmacy", "building": null, "healthcare": null, "healthcare:speciality": null, "operator:type": null, "capacity:persons": null, "addr:full": null, "addr:city": null, "source": null, "osm_id": 4741290374, "osm_type": "nodes" }, "geometry": { "type": "Point", "coordinates": [ -0.0145108, 5.7046707 ] } },
{ "type": "Feature", "properties": { "name": "Eric's Chemists", "name:en": null, "amenity": "pharmacy", "building": null, "healthcare": null, "healthcare:speciality": null, "operator:type": null, "capacity:persons": null, "addr:full": null, "addr:city": null, "source": null, "osm_id": 3802490258, "osm_type": "nodes" }, "geometry": { "type": "Point", "coordinates": [ -0.013351, 5.6961969 ] } },
{ "type": "Feature", "properties": { "name": null, "name:en": null, "amenity": "pharmacy", "building": null, "healthcare": "pharmacy", "healthcare:speciality": null, "operator:type": null, "capacity:persons": null, "addr:full": null, "addr:city": null, "source": null, "osm_id": 6553299805, "osm_type": "nodes" }, "geometry": { "type": "Point", "coordinates": [ -0.0132154, 5.6889911 ] } },
{ "type": "Feature", "properties": { "name": "Top-up", "name:en": null, "amenity": "pharmacy", "building": null, "healthcare": null, "healthcare:speciality": null, "operator:type": null, "capacity:persons": null, "addr:full": null, "addr:city": null, "source": null, "osm_id": 10264578937, "osm_type": "nodes" }, "geometry": { "type": "Point", "coordinates": [ -0.0089373, 5.7513455 ] } },
{ "type": "Feature", "properties": { "name": "Inter-Pharma Limited", "name:en": null, "amenity": "pharmacy", "building": null, "healthcare": null, "healthcare:speciality": null, "operator:type": null, "capacity:persons": null, "addr:full": null, "addr:city": null, "source": null, "osm_id": 6435759256, "osm_type": "nodes" }, "geometry": { "type": "Point", "coordinates": [ -0.2597503, 6.0943768 ] } },
{ "type": "Feature", "properties": { "name": "Daniel A. Tetteh ( Awokye Drug Store)", "name:en": null, "amenity": "pharmacy", "building": null, "healthcare": null, "healthcare:speciality": null, "operator:type": null, "capacity:persons": null, "addr:full": null, "addr:city": null, "source": null, "osm_id": 6256037003, "osm_type": "nodes" }, "geometry": { "type": "Point", "coordinates": [ -0.0778634, 6.0164575 ] } },
{ "type": "Feature", "properties": { "name": "Davjoel Pharmacy", "name:en": null, "amenity": "pharmacy", "building": null, "healthcare": null, "healthcare:speciality": null, "operator:type": null, "capacity:persons": null, "addr:full": null, "addr:city": null, "source": null, "osm_id": 6431425985, "osm_type": "nodes" }, "geometry": { "type": "Point", "coordinates": [ -0.0895671, 5.8886536 ] } },
{ "type": "Feature", "properties": { "name": "Patbrenda Clinic & Laboratory", "name:en": null, "amenity": "clinic", "building": null, "healthcare": null, "healthcare:speciality": null, "operator:type": null, "capacity:persons": null, "addr:full": null, "addr:city": null, "source": null, "osm_id": 6388042484, "osm_type": "nodes" }, "geometry": { "type": "Point", "coordinates": [ -0.2476782, 6.1070286 ] } },
{ "type": "Feature", "properties": { "name": "Skycare Pharmacy", "name:en": null, "amenity": "pharmacy", "building": null, "healthcare": null, "healthcare:speciality": null, "operator:type": null, "capacity:persons": null, "addr:full": null, "addr:city": null, "source": null, "osm_id": 6372816494, "osm_type": "nodes" }, "geometry": { "type": "Point", "coordinates": [ -0.2476063, 6.1060628 ] } },
{ "type": "Feature", "properties": { "name": "Forbiq Pharmacy", "name:en": null, "amenity": "pharmacy", "building": null, "healthcare": null, "healthcare:speciality": null, "operator:type": null, "capacity:persons": null, "addr:full": null, "addr:city": null, "source": null, "osm_id": 4400503914, "osm_type": "nodes" }, "geometry": { "type": "Point", "coordinates": [ -0.1678208, 5.6862571 ] } },
{ "type": "Feature", "properties": { "name": "Aboabo Drug Store", "name:en": null, "amenity": "pharmacy", "building": null, "healthcare": null, "healthcare:speciality": null, "operator:type": null, "capacity:persons": null, "addr:full": null, "addr:city": null, "source": null, "osm_id": 6256498497, "osm_type": "nodes" }, "geometry": { "type": "Point", "coordinates": [ -0.2347289, 6.1177538 ] } },
{ "type": "Feature", "properties": { "name": "Adenta Clinic", "name:en": null, "amenity": "clinic", "building": null, "healthcare": null, "healthcare:speciality": null, "operator:type": null, "capacity:persons": null, "addr:full": null, "addr:city": null, "source": null, "osm_id": 4400510392, "osm_type": "nodes" }, "geometry": { "type": "Point", "coordinates": [ -0.1681089, 5.7060649 ] } },
{ "type": "Feature", "properties": { "name": "Modem Pharmacy Limited", "name:en": null, "amenity": "pharmacy", "building": null, "healthcare": null, "healthcare:speciality": null, "operator:type": null, "capacity:persons": null, "addr:full": null, "addr:city": null, "source": null, "osm_id": 7859194100, "osm_type": "nodes" }, "geometry": { "type": "Point", "coordinates": [ -0.1770306, 5.7433611 ] } },
{ "type": "Feature", "properties": { "name": "Beanathan Pharmacy", "name:en": null, "amenity": "pharmacy", "building": null, "healthcare": null, "healthcare:speciality": null, "operator:type": null, "capacity:persons": null, "addr:full": null, "addr:city": null, "source": null, "osm_id": 9229859744, "osm_type": "nodes" }, "geometry": { "type": "Point", "coordinates": [ -0.1944211, 5.6863921 ] } },
{ "type": "Feature", "properties": { "name": "Medcare Plus Clinic", "name:en": null, "amenity": "clinic", "building": null, "healthcare": null, "healthcare:speciality": null, "operator:type": null, "capacity:persons": null, "addr:full": null, "addr:city": null, "source": null, "osm_id": 10246620499, "osm_type": "nodes" }, "geometry": { "type": "Point", "coordinates": [ -0.2057906, 5.7130107 ] } },
{ "type": "Feature", "properties": { "name": "Mcaliz Pharmacy", "name:en": null, "amenity": "pharmacy", "building": null, "healthcare": null, "healthcare:speciality": null, "operator:type": null, "capacity:persons": null, "addr:full": null, "addr:city": null, "source": null, "osm_id": 7293055585, "osm_type": "nodes" }, "geometry": { "type": "Point", "coordinates": [ -0.1934295, 5.7109887 ] } },
{ "type": "Feature", "properties": { "name": "Urban Medical Research Center", "name:en": null, "amenity": "clinic", "building": null, "healthcare": null, "healthcare:speciality": null, "operator:type": null, "capacity:persons": null, "addr:full": null, "addr:city": null, "source": null, "osm_id": 5728895262, "osm_type": "nodes" }, "geometry": { "type": "Point", "coordinates": [ -0.195842, 5.6812542 ] } },
{ "type": "Feature", "properties": { "name": "Classic Diagnostic & Medical Clinic", "name:en": null, "amenity": "clinic", "building": null, "healthcare": null, "healthcare:speciality": null, "operator:type": null, "capacity:persons": null, "addr:full": null, "addr:city": null, "source": null, "osm_id": 8718176396, "osm_type": "nodes" }, "geometry": { "type": "Point", "coordinates": [ -0.2017476, 5.7045526 ] } },
{ "type": "Feature", "properties": { "name": "Tap Pharmacy", "name:en": null, "amenity": "pharmacy", "building": null, "healthcare": null, "healthcare:speciality": null, "operator:type": null, "capacity:persons": null, "addr:full": null, "addr:city": null, "source": null, "osm_id": 6703755509, "osm_type": "nodes" }, "geometry": { "type": "Point", "coordinates": [ -0.1969148, 5.6902692 ] } },
{ "type": "Feature", "properties": { "name": "Jessumana Pharmacy", "name:en": null, "amenity": "pharmacy", "building": null, "healthcare": null, "healthcare:speciality": null, "operator:type": null, "capacity:persons": null, "addr:full": null, "addr:city": null, "source": null, "osm_id": 6703531223, "osm_type": "nodes" }, "geometry": { "type": "Point", "coordinates": [ -0.2015071, 5.6951154 ] } },
{ "type": "Feature", "properties": { "name": "Agbogba Community Clinic", "name:en": null, "amenity": "clinic", "building": null, "healthcare": null, "healthcare:speciality": null, "operator:type": null, "capacity:persons": null, "addr:full": null, "addr:city": null, "source": null, "osm_id": 7439191623, "osm_type": "nodes" }, "geometry": { "type": "Point", "coordinates": [ -0.2012443, 5.6949529 ] } },
{ "type": "Feature", "properties": { "name": "Haatso Pharmacy", "name:en": null, "amenity": "pharmacy", "building": null, "healthcare": null, "healthcare:speciality": null, "operator:type": null, "capacity:persons": null, "addr:full": null, "addr:city": null, "source": null, "osm_id": 10610469636, "osm_type": "nodes" }, "geometry": { "type": "Point", "coordinates": [ -0.2028069, 5.6775476 ] } },
{ "type": "Feature", "properties": { "name": "Pokuase Pharmacy", "name:en": null, "amenity": "pharmacy", "building": null, "healthcare": null, "healthcare:speciality": null, "operator:type": null, "capacity:persons": null, "addr:full": null, "addr:city": null, "source": null, "osm_id": 7799331930, "osm_type": "nodes" }, "geometry": { "type": "Point", "coordinates": [ -0.2915176, 5.6728171 ] } },
{ "type": "Feature", "properties": { "name": "Radiance Pharmacy", "name:en": null, "amenity": "pharmacy", "building": null, "healthcare": null, "healthcare:speciality": null, "operator:type": null, "capacity:persons": null, "addr:full": null, "addr:city": null, "source": null, "osm_id": 5210899221, "osm_type": "nodes" }, "geometry": { "type": "Point", "coordinates": [ -0.1880574, 5.6686491 ] } },
{ "type": "Feature", "properties": { "name": "Nuffield Clinic Orthopaedic", "name:en": null, "amenity": "doctors", "building": null, "healthcare": null, "healthcare:speciality": null, "operator:type": null, "capacity:persons": null, "addr:full": null, "addr:city": null, "source": null, "osm_id": 2151944590, "osm_type": "nodes" }, "geometry": { "type": "Point", "coordinates": [ -0.184822, 5.5657782 ] } },
{ "type": "Feature", "properties": { "name": "Media Pharmacy", "name:en": null, "amenity": "pharmacy", "building": null, "healthcare": null, "healthcare:speciality": null, "operator:type": null, "capacity:persons": null, "addr:full": null, "addr:city": null, "source": null, "osm_id": 6925128752, "osm_type": "nodes" }, "geometry": { "type": "Point", "coordinates": [ -0.1397974, 5.6326336 ] } },
{ "type": "Feature", "properties": { "name": "Rebeacon Chemists Limited", "name:en": null, "amenity": "pharmacy", "building": null, "healthcare": null, "healthcare:speciality": null, "operator:type": null, "capacity:persons": null, "addr:full": null, "addr:city": null, "source": null, "osm_id": 10261046914, "osm_type": "nodes" }, "geometry": { "type": "Point", "coordinates": [ -0.2042964, 5.6659402 ] } },
{ "type": "Feature", "properties": { "name": "Trust Specialist Hospital", "name:en": null, "amenity": "doctors", "building": null, "healthcare": "doctor", "healthcare:speciality": null, "operator:type": null, "capacity:persons": null, "addr:full": null, "addr:city": null, "source": null, "osm_id": 3665190017, "osm_type": "nodes" }, "geometry": { "type": "Point", "coordinates": [ -0.1870794, 5.5607496 ] } },
{ "type": "Feature", "properties": { "name": "Prime Pharmacy", "name:en": null, "amenity": "pharmacy", "building": null, "healthcare": "pharmacy", "healthcare:speciality": null, "operator:type": null, "capacity:persons": null, "addr:full": null, "addr:city": null, "source": null, "osm_id": 6593471393, "osm_type": "nodes" }, "geometry": { "type": "Point", "coordinates": [ -0.2252321, 5.6007128 ] } },
{ "type": "Feature", "properties": { "name": "Speed Pharmacy", "name:en": null, "amenity": "pharmacy", "building": null, "healthcare": null, "healthcare:speciality": null, "operator:type": null, "capacity:persons": null, "addr:full": null, "addr:city": null, "source": null, "osm_id": 5322314854, "osm_type": "nodes" }, "geometry": { "type": "Point", "coordinates": [ -0.1336578, 5.5955838 ] } },
{ "type": "Feature", "properties": { "name": null, "name:en": null, "amenity": "pharmacy", "building": null, "healthcare": null, "healthcare:speciality": null, "operator:type": null, "capacity:persons": null, "addr:full": null, "addr:city": null, "source": null, "osm_id": 8572308017, "osm_type": "nodes" }, "geometry": { "type": "Point", "coordinates": [ -0.1360283, 5.5903667 ] } },
{ "type": "Feature", "properties": { "name": "Poll Point Pharmacy", "name:en": null, "amenity": "pharmacy", "building": null, "healthcare": null, "healthcare:speciality": null, "operator:type": null, "capacity:persons": null, "addr:full": null, "addr:city": null, "source": null, "osm_id": 6700466399, "osm_type": "nodes" }, "geometry": { "type": "Point", "coordinates": [ -0.1002885, 5.5851971 ] } },
{ "type": "Feature", "properties": { "name": "Christian Medical Service Clinic", "name:en": null, "amenity": "clinic", "building": null, "healthcare": null, "healthcare:speciality": null, "operator:type": null, "capacity:persons": null, "addr:full": null, "addr:city": null, "source": null, "osm_id": 6727482684, "osm_type": "nodes" }, "geometry": { "type": "Point", "coordinates": [ -0.1050135, 5.5832145 ] } },
{ "type": "Feature", "properties": { "name": null, "name:en": null, "amenity": "pharmacy", "building": null, "healthcare": "pharmacy", "healthcare:speciality": null, "operator:type": null, "capacity:persons": null, "addr:full": null, "addr:city": null, "source": null, "osm_id": 10302249981, "osm_type": "nodes" }, "geometry": { "type": "Point", "coordinates": [ -0.2039876, 5.7229155 ] } },
{ "type": "Feature", "properties": { "name": null, "name:en": null, "amenity": "pharmacy", "building": null, "healthcare": null, "healthcare:speciality": null, "operator:type": null, "capacity:persons": null, "addr:full": null, "addr:city": null, "source": null, "osm_id": 9592741594, "osm_type": "nodes" }, "geometry": { "type": "Point", "coordinates": [ -0.1220384, 5.7688001 ] } },
{ "type": "Feature", "properties": { "name": "Nyaho Medical Centre", "name:en": null, "amenity": "hospital", "building": null, "healthcare": "hospital", "healthcare:speciality": null, "operator:type": null, "capacity:persons": null, "addr:full": null, "addr:city": null, "source": null, "osm_id": 5755779938, "osm_type": "nodes" }, "geometry": { "type": "Point", "coordinates": [ -0.2039394, 5.5514896 ] } },
{ "type": "Feature", "properties": { "name": "Mutti Pharmacy", "name:en": null, "amenity": "pharmacy", "building": null, "healthcare": "pharmacy", "healthcare:speciality": null, "operator:type": null, "capacity:persons": null, "addr:full": null, "addr:city": null, "source": null, "osm_id": 7348800679, "osm_type": "nodes" }, "geometry": { "type": "Point", "coordinates": [ -0.1259632, 5.6076574 ] } },
{ "type": "Feature", "properties": { "name": "Evepet Pharmacy", "name:en": null, "amenity": "pharmacy", "building": null, "healthcare": null, "healthcare:speciality": null, "operator:type": null, "capacity:persons": null, "addr:full": null, "addr:city": null, "source": null, "osm_id": 6753538057, "osm_type": "nodes" }, "geometry": { "type": "Point", "coordinates": [ -0.1308989, 5.5897393 ] } },
{ "type": "Feature", "properties": { "name": "Kingstreet Pharmacy", "name:en": null, "amenity": "pharmacy", "building": null, "healthcare": "pharmacy", "healthcare:speciality": null, "operator:type": null, "capacity:persons": null, "addr:full": null, "addr:city": null, "source": null, "osm_id": 7348800680, "osm_type": "nodes" }, "geometry": { "type": "Point", "coordinates": [ -0.1179656, 5.6049051 ] } },
{ "type": "Feature", "properties": { "name": "Biotic Pharmacy", "name:en": null, "amenity": "pharmacy", "building": null, "healthcare": null, "healthcare:speciality": null, "operator:type": null, "capacity:persons": null, "addr:full": null, "addr:city": "Spintex Accra", "source": null, "osm_id": 5819906953, "osm_type": "nodes" }, "geometry": { "type": "Point", "coordinates": [ -0.1240158, 5.6388538 ] } },
{ "type": "Feature", "properties": { "name": "Prime", "name:en": null, "amenity": "pharmacy", "building": null, "healthcare": null, "healthcare:speciality": null, "operator:type": null, "capacity:persons": null, "addr:full": null, "addr:city": null, "source": null, "osm_id": 6446698786, "osm_type": "nodes" }, "geometry": { "type": "Point", "coordinates": [ -0.1230814, 5.6388459 ] } },
{ "type": "Feature", "properties": { "name": "Nola", "name:en": null, "amenity": "pharmacy", "building": null, "healthcare": null, "healthcare:speciality": null, "operator:type": null, "capacity:persons": null, "addr:full": null, "addr:city": null, "source": null, "osm_id": 5725952521, "osm_type": "nodes" }, "geometry": { "type": "Point", "coordinates": [ -0.1190853, 5.6411278 ] } },
{ "type": "Feature", "properties": { "name": "Airport Womens Hospital", "name:en": null, "amenity": "doctors", "building": null, "healthcare": "birthing_centre", "healthcare:speciality": "gynaecology", "operator:type": "private", "capacity:persons": null, "addr:full": null, "addr:city": "Accra", "source": null, "osm_id": 2826655019, "osm_type": "nodes" }, "geometry": { "type": "Point", "coordinates": [ -0.1788767, 5.6176593 ] } },
{ "type": "Feature", "properties": { "name": "Top up pharmacy", "name:en": null, "amenity": "pharmacy", "building": null, "healthcare": "pharmacy", "healthcare:speciality": null, "operator:type": null, "capacity:persons": null, "addr:full": null, "addr:city": null, "source": null, "osm_id": 11056783508, "osm_type": "nodes" }, "geometry": { "type": "Point", "coordinates": [ -0.0132763, 5.6325774 ] } },
{ "type": "Feature", "properties": { "name": "Raphal Medical Center", "name:en": null, "amenity": "doctors", "building": null, "healthcare": "doctor", "healthcare:speciality": null, "operator:type": null, "capacity:persons": null, "addr:full": null, "addr:city": null, "source": null, "osm_id": 4400503925, "osm_type": "nodes" }, "geometry": { "type": "Point", "coordinates": [ -0.0207067, 5.6601472 ] } },
{ "type": "Feature", "properties": { "name": "Nhyira Pharmacy", "name:en": null, "amenity": "pharmacy", "building": null, "healthcare": null, "healthcare:speciality": null, "operator:type": null, "capacity:persons": null, "addr:full": null, "addr:city": null, "source": null, "osm_id": 6950451591, "osm_type": "nodes" }, "geometry": { "type": "Point", "coordinates": [ -0.4295575, 5.5334698 ] } },
{ "type": "Feature", "properties": { "name": "Danfa Clinic", "name:en": null, "amenity": "clinic", "building": null, "healthcare": null, "healthcare:speciality": null, "operator:type": null, "capacity:persons": null, "addr:full": null, "addr:city": null, "source": null, "osm_id": 9132743820, "osm_type": "nodes" }, "geometry": { "type": "Point", "coordinates": [ -0.1595359, 5.7894523 ] } },
{ "type": "Feature", "properties": { "name": null, "name:en": null, "amenity": "pharmacy", "building": null, "healthcare": null, "healthcare:speciality": null, "operator:type": null, "capacity:persons": null, "addr:full": null, "addr:city": null, "source": null, "osm_id": 6465302585, "osm_type": "nodes" }, "geometry": { "type": "Point", "coordinates": [ -0.1827257, 5.750034 ] } },
{ "type": "Feature", "properties": { "name": "RX Pharmacy", "name:en": null, "amenity": "pharmacy", "building": null, "healthcare": "pharmacy", "healthcare:speciality": null, "operator:type": null, "capacity:persons": null, "addr:full": null, "addr:city": "Accra", "source": null, "osm_id": 7331952065, "osm_type": "nodes" }, "geometry": { "type": "Point", "coordinates": [ -0.1825066, 5.7496538 ] } },
{ "type": "Feature", "properties": { "name": "Aide Pharmacy", "name:en": null, "amenity": "pharmacy", "building": null, "healthcare": "pharmacy", "healthcare:speciality": null, "operator:type": null, "capacity:persons": null, "addr:full": null, "addr:city": "Accra", "source": null, "osm_id": 7331974110, "osm_type": "nodes" }, "geometry": { "type": "Point", "coordinates": [ -0.1894062, 5.7472575 ] } },
{ "type": "Feature", "properties": { "name": "Eben Kweku Newton Licensed Chemical Shop", "name:en": null, "amenity": "pharmacy", "building": null, "healthcare": "pharmacy", "healthcare:speciality": null, "operator:type": null, "capacity:persons": null, "addr:full": null, "addr:city": null, "source": null, "osm_id": 10691098344, "osm_type": "nodes" }, "geometry": { "type": "Point", "coordinates": [ -0.2033705, 5.7318913 ] } },
{ "type": "Feature", "properties": { "name": "Koforidua Clinic", "name:en": null, "amenity": "clinic", "building": null, "healthcare": null, "healthcare:speciality": null, "operator:type": null, "capacity:persons": null, "addr:full": null, "addr:city": null, "source": null, "osm_id": 6288620693, "osm_type": "nodes" }, "geometry": { "type": "Point", "coordinates": [ -0.2686479, 6.0884965 ] } },
{ "type": "Feature", "properties": { "name": "Kama Pharmacy", "name:en": null, "amenity": "pharmacy", "building": null, "healthcare": null, "healthcare:speciality": null, "operator:type": null, "capacity:persons": null, "addr:full": null, "addr:city": null, "source": null, "osm_id": 6435778898, "osm_type": "nodes" }, "geometry": { "type": "Point", "coordinates": [ -0.2573599, 6.0908034 ] } },
{ "type": "Feature", "properties": { "name": null, "name:en": null, "amenity": "pharmacy", "building": null, "healthcare": null, "healthcare:speciality": null, "operator:type": null, "capacity:persons": null, "addr:full": null, "addr:city": null, "source": null, "osm_id": 1251736937, "osm_type": "nodes" }, "geometry": { "type": "Point", "coordinates": [ -0.1959567, 5.6136399 ] } },
{ "type": "Feature", "properties": { "name": "St. Andrews Clinic", "name:en": null, "amenity": "doctors", "building": null, "healthcare": "doctor", "healthcare:speciality": null, "operator:type": null, "capacity:persons": null, "addr:full": null, "addr:city": null, "source": null, "osm_id": 3506704821, "osm_type": "nodes" }, "geometry": { "type": "Point", "coordinates": [ -0.1880233, 5.608001 ] } },
{ "type": "Feature", "properties": { "name": "Hass West Africa Hearing Clinic", "name:en": null, "amenity": "clinic", "building": null, "healthcare": null, "healthcare:speciality": null, "operator:type": null, "capacity:persons": null, "addr:full": null, "addr:city": null, "source": null, "osm_id": 10285782792, "osm_type": "nodes" }, "geometry": { "type": "Point", "coordinates": [ -0.2360584, 5.5714423 ] } },
{ "type": "Feature", "properties": { "name": "Vicdoris Pharmacy", "name:en": null, "amenity": "pharmacy", "building": null, "healthcare": null, "healthcare:speciality": null, "operator:type": null, "capacity:persons": null, "addr:full": null, "addr:city": null, "source": null, "osm_id": 9599082167, "osm_type": "nodes" }, "geometry": { "type": "Point", "coordinates": [ -0.2308805, 5.5741404 ] } },
{ "type": "Feature", "properties": { "name": "Jinlet Pharmacy", "name:en": null, "amenity": "pharmacy", "building": null, "healthcare": "pharmacy", "healthcare:speciality": null, "operator:type": null, "capacity:persons": null, "addr:full": null, "addr:city": null, "source": null, "osm_id": 1364922558, "osm_type": "nodes" }, "geometry": { "type": "Point", "coordinates": [ -0.2224166, 5.5725719 ] } },
{ "type": "Feature", "properties": { "name": "EverCare Pharmacy", "name:en": null, "amenity": "pharmacy", "building": null, "healthcare": null, "healthcare:speciality": null, "operator:type": null, "capacity:persons": null, "addr:full": null, "addr:city": null, "source": null, "osm_id": 6797165933, "osm_type": "nodes" }, "geometry": { "type": "Point", "coordinates": [ -0.2123742, 6.1284523 ] } },
{ "type": "Feature", "properties": { "name": "Abotanse CHPs Compound", "name:en": null, "amenity": null, "building": null, "healthcare": "yes", "healthcare:speciality": null, "operator:type": null, "capacity:persons": null, "addr:full": null, "addr:city": null, "source": null, "osm_id": 8507017600, "osm_type": "nodes" }, "geometry": { "type": "Point", "coordinates": [ -0.0957694, 7.0798809 ] } },
{ "type": "Feature", "properties": { "name": "Donkorkrom Central CHPs Compound", "name:en": null, "amenity": null, "building": null, "healthcare": "yes", "healthcare:speciality": null, "operator:type": null, "capacity:persons": null, "addr:full": null, "addr:city": null, "source": null, "osm_id": 8499509164, "osm_type": "nodes" }, "geometry": { "type": "Point", "coordinates": [ -0.0806923, 7.0473648 ] } },
{ "type": "Feature", "properties": { "name": "Kwaekesse CHPs Compound", "name:en": null, "amenity": null, "building": null, "healthcare": "yes", "healthcare:speciality": null, "operator:type": null, "capacity:persons": null, "addr:full": null, "addr:city": null, "source": null, "osm_id": 8507753662, "osm_type": "nodes" }, "geometry": { "type": "Point", "coordinates": [ -0.1161307, 7.0574664 ] } },
{ "type": "Feature", "properties": { "name": "Attakorah CHPs Compound", "name:en": null, "amenity": null, "building": null, "healthcare": "yes", "healthcare:speciality": null, "operator:type": null, "capacity:persons": null, "addr:full": null, "addr:city": null, "source": null, "osm_id": 8499837804, "osm_type": "nodes" }, "geometry": { "type": "Point", "coordinates": [ -0.0886518, 7.046312 ] } },
{ "type": "Feature", "properties": { "name": "Asikasu CHPs Compound", "name:en": null, "amenity": null, "building": null, "healthcare": "yes", "healthcare:speciality": null, "operator:type": null, "capacity:persons": null, "addr:full": null, "addr:city": null, "source": null, "osm_id": 8500132756, "osm_type": "nodes" }, "geometry": { "type": "Point", "coordinates": [ -0.0821343, 7.0395861 ] } },
{ "type": "Feature", "properties": { "name": "Adukrom CHPs Compound", "name:en": null, "amenity": null, "building": null, "healthcare": "yes", "healthcare:speciality": null, "operator:type": null, "capacity:persons": null, "addr:full": null, "addr:city": null, "source": null, "osm_id": 8507559106, "osm_type": "nodes" }, "geometry": { "type": "Point", "coordinates": [ -0.0952629, 7.0140064 ] } },
{ "type": "Feature", "properties": { "name": "Cyrus Physiotherapy and Rehabilitation Centre", "name:en": null, "amenity": null, "building": null, "healthcare": "occupational_therapist", "healthcare:speciality": null, "operator:type": null, "capacity:persons": null, "addr:full": null, "addr:city": null, "source": null, "osm_id": 8240196694, "osm_type": "nodes" }, "geometry": { "type": "Point", "coordinates": [ -0.192819, 5.7626169 ] } },
{ "type": "Feature", "properties": { "name": "Christian Attuah Chemicals Shop", "name:en": null, "amenity": "pharmacy", "building": null, "healthcare": "pharmacy", "healthcare:speciality": null, "operator:type": null, "capacity:persons": null, "addr:full": null, "addr:city": null, "source": null, "osm_id": 8438553051, "osm_type": "nodes" }, "geometry": { "type": "Point", "coordinates": [ -0.3666606, 6.2168228 ] } },
{ "type": "Feature", "properties": { "name": "CP", "name:en": null, "amenity": "pharmacy", "building": null, "healthcare": null, "healthcare:speciality": null, "operator:type": null, "capacity:persons": null, "addr:full": null, "addr:city": null, "source": null, "osm_id": 5535787467, "osm_type": "nodes" }, "geometry": { "type": "Point", "coordinates": [ -0.3655684, 6.2218955 ] } },
{ "type": "Feature", "properties": { "name": "New Tafo Government Hospital", "name:en": null, "amenity": "hospital", "building": null, "healthcare": "hospital", "healthcare:speciality": null, "operator:type": "public", "capacity:persons": null, "addr:full": null, "addr:city": null, "source": null, "osm_id": 8279034723, "osm_type": "nodes" }, "geometry": { "type": "Point", "coordinates": [ -0.3660381, 6.2308156 ] } },
{ "type": "Feature", "properties": { "name": "Rabitto Pharmacy", "name:en": null, "amenity": "pharmacy", "building": null, "healthcare": null, "healthcare:speciality": null, "operator:type": null, "capacity:persons": null, "addr:full": null, "addr:city": null, "source": null, "osm_id": 10691788254, "osm_type": "nodes" }, "geometry": { "type": "Point", "coordinates": [ -0.4743928, 6.2913819 ] } },
{ "type": "Feature", "properties": { "name": "Nectar Pharmacy", "name:en": null, "amenity": "pharmacy", "building": null, "healthcare": null, "healthcare:speciality": null, "operator:type": null, "capacity:persons": null, "addr:full": null, "addr:city": null, "source": null, "osm_id": 3073611741, "osm_type": "nodes" }, "geometry": { "type": "Point", "coordinates": [ -0.2430072, 5.5678949 ] } },
{ "type": "Feature", "properties": { "name": "Visat Pharmacy", "name:en": null, "amenity": "pharmacy", "building": null, "healthcare": null, "healthcare:speciality": null, "operator:type": null, "capacity:persons": null, "addr:full": null, "addr:city": null, "source": null, "osm_id": 7614571218, "osm_type": "nodes" }, "geometry": { "type": "Point", "coordinates": [ -0.1806008, 5.6838838 ] } },
{ "type": "Feature", "properties": { "name": "Premium Pharmacy and Mart", "name:en": null, "amenity": "pharmacy", "building": null, "healthcare": "pharmacy", "healthcare:speciality": null, "operator:type": null, "capacity:persons": null, "addr:full": null, "addr:city": null, "source": null, "osm_id": 6700363806, "osm_type": "nodes" }, "geometry": { "type": "Point", "coordinates": [ -0.1783399, 5.5524154 ] } },
{ "type": "Feature", "properties": { "name": "Lifebridge Physio Clinic", "name:en": null, "amenity": "clinic", "building": null, "healthcare": null, "healthcare:speciality": null, "operator:type": null, "capacity:persons": null, "addr:full": null, "addr:city": null, "source": null, "osm_id": 4278047642, "osm_type": "nodes" }, "geometry": { "type": "Point", "coordinates": [ -0.1784063, 5.5568986 ] } },
{ "type": "Feature", "properties": { "name": "Sakeena Ofosu", "name:en": null, "amenity": "pharmacy", "building": null, "healthcare": null, "healthcare:speciality": null, "operator:type": null, "capacity:persons": null, "addr:full": null, "addr:city": null, "source": null, "osm_id": 6975562195, "osm_type": "nodes" }, "geometry": { "type": "Point", "coordinates": [ -0.2536678, 5.6583712 ] } },
{ "type": "Feature", "properties": { "name": "Just ask Pharmacy and Mart", "name:en": null, "amenity": "pharmacy", "building": null, "healthcare": null, "healthcare:speciality": null, "operator:type": null, "capacity:persons": null, "addr:full": null, "addr:city": null, "source": null, "osm_id": 7495050567, "osm_type": "nodes" }, "geometry": { "type": "Point", "coordinates": [ -0.2627508, 5.655305 ] } },
{ "type": "Feature", "properties": { "name": "Club Road Clinic", "name:en": null, "amenity": "clinic", "building": null, "healthcare": "clinic", "healthcare:speciality": null, "operator:type": null, "capacity:persons": null, "addr:full": null, "addr:city": null, "source": null, "osm_id": 6213041912, "osm_type": "nodes" }, "geometry": { "type": "Point", "coordinates": [ -0.2063852, 5.5444776 ] } },
{ "type": "Feature", "properties": { "name": "Essel Pharmacy", "name:en": null, "amenity": "pharmacy", "building": null, "healthcare": null, "healthcare:speciality": null, "operator:type": null, "capacity:persons": null, "addr:full": null, "addr:city": null, "source": null, "osm_id": 6939763699, "osm_type": "nodes" }, "geometry": { "type": "Point", "coordinates": [ -0.1079987, 5.6091257 ] } },
{ "type": "Feature", "properties": { "name": "Jilak Chemists", "name:en": null, "amenity": "pharmacy", "building": null, "healthcare": null, "healthcare:speciality": null, "operator:type": null, "capacity:persons": null, "addr:full": null, "addr:city": null, "source": null, "osm_id": 6769611313, "osm_type": "nodes" }, "geometry": { "type": "Point", "coordinates": [ -0.1093207, 5.5791629 ] } },
{ "type": "Feature", "properties": { "name": "Medipoint", "name:en": null, "amenity": "pharmacy", "building": null, "healthcare": null, "healthcare:speciality": null, "operator:type": null, "capacity:persons": null, "addr:full": null, "addr:city": null, "source": null, "osm_id": 3229726703, "osm_type": "nodes" }, "geometry": { "type": "Point", "coordinates": [ -0.1743606, 5.5684141 ] } },
{ "type": "Feature", "properties": { "name": null, "name:en": null, "amenity": "pharmacy", "building": null, "healthcare": null, "healthcare:speciality": null, "operator:type": null, "capacity:persons": null, "addr:full": null, "addr:city": null, "source": null, "osm_id": 5017201476, "osm_type": "nodes" }, "geometry": { "type": "Point", "coordinates": [ -0.1684745, 5.5695016 ] } },
{ "type": "Feature", "properties": { "name": "Add Pharmacy", "name:en": null, "amenity": "pharmacy", "building": null, "healthcare": "pharmacy", "healthcare:speciality": null, "operator:type": null, "capacity:persons": null, "addr:full": null, "addr:city": null, "source": null, "osm_id": 6376476022, "osm_type": "nodes" }, "geometry": { "type": "Point", "coordinates": [ -0.2303267, 5.5904117 ] } },
{ "type": "Feature", "properties": { "name": "PNT Pharmacy", "name:en": null, "amenity": "pharmacy", "building": null, "healthcare": "pharmacy", "healthcare:speciality": null, "operator:type": null, "capacity:persons": null, "addr:full": null, "addr:city": null, "source": null, "osm_id": 5959485126, "osm_type": "nodes" }, "geometry": { "type": "Point", "coordinates": [ -0.2312334, 5.5842416 ] } },
{ "type": "Feature", "properties": { "name": "Hobats Clinic", "name:en": null, "amenity": "doctors", "building": null, "healthcare": "doctor", "healthcare:speciality": null, "operator:type": null, "capacity:persons": null, "addr:full": null, "addr:city": null, "source": null, "osm_id": 388565621, "osm_type": "nodes" }, "geometry": { "type": "Point", "coordinates": [ -0.2317013, 5.606822 ] } },
{ "type": "Feature", "properties": { "name": "Opmann Clinic", "name:en": null, "amenity": "clinic", "building": null, "healthcare": "clinic", "healthcare:speciality": null, "operator:type": null, "capacity:persons": null, "addr:full": null, "addr:city": null, "source": null, "osm_id": 5199759903, "osm_type": "nodes" }, "geometry": { "type": "Point", "coordinates": [ -0.2420194, 5.6081001 ] } },
{ "type": "Feature", "properties": { "name": "NEA Pharmacy", "name:en": null, "amenity": "pharmacy", "building": null, "healthcare": "pharmacy", "healthcare:speciality": null, "operator:type": null, "capacity:persons": null, "addr:full": null, "addr:city": null, "source": null, "osm_id": 6490356674, "osm_type": "nodes" }, "geometry": { "type": "Point", "coordinates": [ -0.2363711, 5.6027124 ] } },
{ "type": "Feature", "properties": { "name": null, "name:en": null, "amenity": "pharmacy", "building": null, "healthcare": "pharmacy", "healthcare:speciality": null, "operator:type": null, "capacity:persons": null, "addr:full": null, "addr:city": null, "source": null, "osm_id": 6489258742, "osm_type": "nodes" }, "geometry": { "type": "Point", "coordinates": [ -0.2448186, 5.6045211 ] } },
{ "type": "Feature", "properties": { "name": "Geomond Eye Centre", "name:en": null, "amenity": "clinic", "building": null, "healthcare": null, "healthcare:speciality": null, "operator:type": null, "capacity:persons": null, "addr:full": null, "addr:city": null, "source": null, "osm_id": 9646636717, "osm_type": "nodes" }, "geometry": { "type": "Point", "coordinates": [ -0.0787279, 5.6175006 ] } },
{ "type": "Feature", "properties": { "name": "Millan Elements", "name:en": null, "amenity": "pharmacy", "building": null, "healthcare": null, "healthcare:speciality": null, "operator:type": null, "capacity:persons": null, "addr:full": null, "addr:city": null, "source": null, "osm_id": 6746346239, "osm_type": "nodes" }, "geometry": { "type": "Point", "coordinates": [ -0.0717734, 5.6179407 ] } },
{ "type": "Feature", "properties": { "name": "CrossRoad", "name:en": null, "amenity": "pharmacy", "building": null, "healthcare": "pharmacy", "healthcare:speciality": null, "operator:type": null, "capacity:persons": null, "addr:full": null, "addr:city": null, "source": null, "osm_id": 6470868779, "osm_type": "nodes" }, "geometry": { "type": "Point", "coordinates": [ -0.0735428, 5.615293 ] } },
{ "type": "Feature", "properties": { "name": "Norkids", "name:en": null, "amenity": "pharmacy", "building": null, "healthcare": "pharmacy", "healthcare:speciality": null, "operator:type": null, "capacity:persons": null, "addr:full": null, "addr:city": null, "source": null, "osm_id": 7154060541, "osm_type": "nodes" }, "geometry": { "type": "Point", "coordinates": [ -0.0623156, 5.6166186 ] } },
{ "type": "Feature", "properties": { "name": "Christleads Medical Center", "name:en": "Christleads Medical Center", "amenity": "clinic", "building": null, "healthcare": null, "healthcare:speciality": null, "operator:type": null, "capacity:persons": null, "addr:full": null, "addr:city": null, "source": null, "osm_id": 4712847592, "osm_type": "nodes" }, "geometry": { "type": "Point", "coordinates": [ -0.1762184, 5.6803825 ] } },
{ "type": "Feature", "properties": { "name": "Medimart", "name:en": null, "amenity": "pharmacy", "building": null, "healthcare": "pharmacy", "healthcare:speciality": null, "operator:type": null, "capacity:persons": null, "addr:full": null, "addr:city": null, "source": null, "osm_id": 6451360488, "osm_type": "nodes" }, "geometry": { "type": "Point", "coordinates": [ -0.1762717, 5.6028695 ] } },
{ "type": "Feature", "properties": { "name": "Ernest Chemists", "name:en": null, "amenity": "pharmacy", "building": null, "healthcare": "pharmacy", "healthcare:speciality": null, "operator:type": null, "capacity:persons": null, "addr:full": null, "addr:city": null, "source": null, "osm_id": 8006375662, "osm_type": "nodes" }, "geometry": { "type": "Point", "coordinates": [ -0.1851469, 5.6077349 ] } },
{ "type": "Feature", "properties": { "name": "Reanie Chemist Limited", "name:en": null, "amenity": "pharmacy", "building": null, "healthcare": "pharmacy", "healthcare:speciality": null, "operator:type": null, "capacity:persons": null, "addr:full": null, "addr:city": null, "source": null, "osm_id": 5732865813, "osm_type": "nodes" }, "geometry": { "type": "Point", "coordinates": [ -0.1804577, 5.6097826 ] } },
{ "type": "Feature", "properties": { "name": "1st Champions Pharmacy", "name:en": null, "amenity": "pharmacy", "building": null, "healthcare": "pharmacy", "healthcare:speciality": null, "operator:type": null, "capacity:persons": null, "addr:full": null, "addr:city": null, "source": null, "osm_id": 6115657385, "osm_type": "nodes" }, "geometry": { "type": "Point", "coordinates": [ -0.2006455, 5.6005147 ] } },
{ "type": "Feature", "properties": { "name": "Franeva", "name:en": null, "amenity": "pharmacy", "building": null, "healthcare": null, "healthcare:speciality": null, "operator:type": null, "capacity:persons": null, "addr:full": null, "addr:city": null, "source": null, "osm_id": 8567038917, "osm_type": "nodes" }, "geometry": { "type": "Point", "coordinates": [ -0.2128638, 5.5850293 ] } },
{ "type": "Feature", "properties": { "name": "Ernbrid Pharmacy", "name:en": null, "amenity": "pharmacy", "building": null, "healthcare": "pharmacy", "healthcare:speciality": null, "operator:type": null, "capacity:persons": null, "addr:full": null, "addr:city": null, "source": null, "osm_id": 6437976663, "osm_type": "nodes" }, "geometry": { "type": "Point", "coordinates": [ -0.2037071, 5.5634603 ] } },
{ "type": "Feature", "properties": { "name": null, "name:en": null, "amenity": "pharmacy", "building": null, "healthcare": null, "healthcare:speciality": null, "operator:type": null, "capacity:persons": null, "addr:full": null, "addr:city": null, "source": null, "osm_id": 10262239547, "osm_type": "nodes" }, "geometry": { "type": "Point", "coordinates": [ -0.1302357, 5.6510313 ] } },
{ "type": "Feature", "properties": { "name": null, "name:en": null, "amenity": "pharmacy", "building": null, "healthcare": "pharmacy", "healthcare:speciality": null, "operator:type": null, "capacity:persons": null, "addr:full": null, "addr:city": null, "source": null, "osm_id": 10967502038, "osm_type": "nodes" }, "geometry": { "type": "Point", "coordinates": [ -0.0875989, 5.6336404 ] } },
{ "type": "Feature", "properties": { "name": "General Family Hospital", "name:en": null, "amenity": "hospital", "building": null, "healthcare": null, "healthcare:speciality": null, "operator:type": null, "capacity:persons": null, "addr:full": null, "addr:city": null, "source": null, "osm_id": 8598911517, "osm_type": "nodes" }, "geometry": { "type": "Point", "coordinates": [ -0.0579181, 5.7243467 ] } },
{ "type": "Feature", "properties": { "name": null, "name:en": null, "amenity": "pharmacy", "building": null, "healthcare": null, "healthcare:speciality": null, "operator:type": null, "capacity:persons": null, "addr:full": null, "addr:city": null, "source": null, "osm_id": 6431460586, "osm_type": "nodes" }, "geometry": { "type": "Point", "coordinates": [ -0.0110179, 6.1083771 ] } },
{ "type": "Feature", "properties": { "name": "Omari Medical Centre", "name:en": null, "amenity": "clinic", "building": null, "healthcare": "yes", "healthcare:speciality": null, "operator:type": null, "capacity:persons": null, "addr:full": null, "addr:city": "Mataheko,Tema", "source": null, "osm_id": 6095208031, "osm_type": "nodes" }, "geometry": { "type": "Point", "coordinates": [ -0.0050862, 5.7722671 ] } },
{ "type": "Feature", "properties": { "name": "Duet Pharmacy", "name:en": null, "amenity": "pharmacy", "building": null, "healthcare": null, "healthcare:speciality": null, "operator:type": null, "capacity:persons": null, "addr:full": null, "addr:city": null, "source": null, "osm_id": 5051344421, "osm_type": "nodes" }, "geometry": { "type": "Point", "coordinates": [ -0.0164622, 5.7510951 ] } },
{ "type": "Feature", "properties": { "name": "OBM Pharmacy", "name:en": null, "amenity": "pharmacy", "building": null, "healthcare": null, "healthcare:speciality": null, "operator:type": null, "capacity:persons": null, "addr:full": null, "addr:city": null, "source": null, "osm_id": 6019652556, "osm_type": "nodes" }, "geometry": { "type": "Point", "coordinates": [ -0.014269, 5.7364094 ] } },
{ "type": "Feature", "properties": { "name": "Lemon", "name:en": null, "amenity": "pharmacy", "building": null, "healthcare": null, "healthcare:speciality": null, "operator:type": null, "capacity:persons": null, "addr:full": null, "addr:city": null, "source": null, "osm_id": 6673302845, "osm_type": "nodes" }, "geometry": { "type": "Point", "coordinates": [ -0.0613318, 5.6390055 ] } },
{ "type": "Feature", "properties": { "name": "Neptune Medical Centre", "name:en": null, "amenity": "hospital", "building": null, "healthcare": null, "healthcare:speciality": null, "operator:type": null, "capacity:persons": null, "addr:full": null, "addr:city": null, "source": "local knowledge", "osm_id": 7312485183, "osm_type": "nodes" }, "geometry": { "type": "Point", "coordinates": [ -0.0748858, 5.6494797 ] } },
{ "type": "Feature", "properties": { "name": "Landmark Medical Center", "name:en": null, "amenity": "hospital", "building": null, "healthcare": "hospital", "healthcare:speciality": "general;clinic", "operator:type": "private", "capacity:persons": null, "addr:full": null, "addr:city": null, "source": null, "osm_id": 10957156755, "osm_type": "nodes" }, "geometry": { "type": "Point", "coordinates": [ -0.075951, 5.6535323 ] } },
{ "type": "Feature", "properties": { "name": "Makay Pharmacy Limited", "name:en": null, "amenity": "pharmacy", "building": null, "healthcare": "pharmacy", "healthcare:speciality": null, "operator:type": null, "capacity:persons": null, "addr:full": null, "addr:city": null, "source": "local knowledge", "osm_id": 10962117777, "osm_type": "nodes" }, "geometry": { "type": "Point", "coordinates": [ -0.067892, 5.6273966 ] } },
{ "type": "Feature", "properties": { "name": "Ebus Dental Clinic", "name:en": null, "amenity": "dentist", "building": null, "healthcare": "dentist", "healthcare:speciality": null, "operator:type": null, "capacity:persons": null, "addr:full": null, "addr:city": null, "source": null, "osm_id": 11021793792, "osm_type": "nodes" }, "geometry": { "type": "Point", "coordinates": [ -0.0766358, 5.6371517 ] } },
{ "type": "Feature", "properties": { "name": "Hutch Pharma Limited", "name:en": null, "amenity": "pharmacy", "building": null, "healthcare": "pharmacy", "healthcare:speciality": null, "operator:type": null, "capacity:persons": null, "addr:full": null, "addr:city": null, "source": "local knowledge", "osm_id": 10948896149, "osm_type": "nodes" }, "geometry": { "type": "Point", "coordinates": [ -0.0764975, 5.6418941 ] } },
{ "type": "Feature", "properties": { "name": "Agratha Natural Herbal Center", "name:en": null, "amenity": null, "building": null, "healthcare": "centre", "healthcare:speciality": null, "operator:type": null, "capacity:persons": null, "addr:full": null, "addr:city": null, "source": null, "osm_id": 5016194293, "osm_type": "nodes" }, "geometry": { "type": "Point", "coordinates": [ -0.2402044, 5.5658489 ] } },
{ "type": "Feature", "properties": { "name": "Comprehensive Telemedicine Ghana", "name:en": null, "amenity": null, "building": null, "healthcare": "yes", "healthcare:speciality": null, "operator:type": null, "capacity:persons": null, "addr:full": null, "addr:city": null, "source": null, "osm_id": 5756412280, "osm_type": "nodes" }, "geometry": { "type": "Point", "coordinates": [ -0.1444839, 5.6456952 ] } },
{ "type": "Feature", "properties": { "name": "Rabito Pharmacy", "name:en": null, "amenity": "pharmacy", "building": null, "healthcare": null, "healthcare:speciality": null, "operator:type": null, "capacity:persons": null, "addr:full": null, "addr:city": null, "source": null, "osm_id": 9922896817, "osm_type": "nodes" }, "geometry": { "type": "Point", "coordinates": [ -0.4746788, 6.2910843 ] } },
{ "type": "Feature", "properties": { "name": "Providence Medical Centre", "name:en": null, "amenity": "clinic", "building": null, "healthcare": null, "healthcare:speciality": null, "operator:type": null, "capacity:persons": null, "addr:full": null, "addr:city": null, "source": null, "osm_id": 5776863753, "osm_type": "nodes" }, "geometry": { "type": "Point", "coordinates": [ -0.2713897, 6.0784731 ] } },
{ "type": "Feature", "properties": { "name": null, "name:en": null, "amenity": "hospital", "building": null, "healthcare": null, "healthcare:speciality": null, "operator:type": null, "capacity:persons": null, "addr:full": null, "addr:city": null, "source": null, "osm_id": 7727444139, "osm_type": "nodes" }, "geometry": { "type": "Point", "coordinates": [ -0.2141144, 5.561609 ] } },
{ "type": "Feature", "properties": { "name": "White Tower", "name:en": null, "amenity": "pharmacy", "building": null, "healthcare": null, "healthcare:speciality": null, "operator:type": null, "capacity:persons": null, "addr:full": null, "addr:city": null, "source": null, "osm_id": 7091233013, "osm_type": "nodes" }, "geometry": { "type": "Point", "coordinates": [ -0.2152962, 5.5611214 ] } },
{ "type": "Feature", "properties": { "name": "Osons Chemist", "name:en": null, "amenity": "pharmacy", "building": null, "healthcare": null, "healthcare:speciality": null, "operator:type": null, "capacity:persons": null, "addr:full": null, "addr:city": null, "source": null, "osm_id": 6305321317, "osm_type": "nodes" }, "geometry": { "type": "Point", "coordinates": [ -0.2129584, 5.5601699 ] } },
{ "type": "Feature", "properties": { "name": "Ernest Chemist Limited", "name:en": null, "amenity": "pharmacy", "building": null, "healthcare": null, "healthcare:speciality": null, "operator:type": null, "capacity:persons": null, "addr:full": null, "addr:city": null, "source": null, "osm_id": 6050981938, "osm_type": "nodes" }, "geometry": { "type": "Point", "coordinates": [ -0.1899149, 5.566062 ] } },
{ "type": "Feature", "properties": { "name": "Ernest Chemist", "name:en": null, "amenity": "pharmacy", "building": null, "healthcare": "pharmacy", "healthcare:speciality": null, "operator:type": null, "capacity:persons": null, "addr:full": null, "addr:city": null, "source": null, "osm_id": 6478645121, "osm_type": "nodes" }, "geometry": { "type": "Point", "coordinates": [ -0.1987869, 5.5656641 ] } },
{ "type": "Feature", "properties": { "name": "M Pact Clinic", "name:en": null, "amenity": "doctors", "building": null, "healthcare": null, "healthcare:speciality": null, "operator:type": null, "capacity:persons": null, "addr:full": null, "addr:city": null, "source": null, "osm_id": 4157336043, "osm_type": "nodes" }, "geometry": { "type": "Point", "coordinates": [ -0.2015919, 5.5704896 ] } },
{ "type": "Feature", "properties": { "name": "New world dental clinic", "name:en": null, "amenity": "dentist", "building": null, "healthcare": null, "healthcare:speciality": null, "operator:type": null, "capacity:persons": null, "addr:full": null, "addr:city": null, "source": null, "osm_id": 1728032244, "osm_type": "nodes" }, "geometry": { "type": "Point", "coordinates": [ -0.202059, 5.5689934 ] } },
{ "type": "Feature", "properties": { "name": "St Moses Clinic", "name:en": null, "amenity": "clinic", "building": null, "healthcare": null, "healthcare:speciality": null, "operator:type": null, "capacity:persons": null, "addr:full": null, "addr:city": null, "source": null, "osm_id": 6352738040, "osm_type": "nodes" }, "geometry": { "type": "Point", "coordinates": [ -0.2858896, 5.6886522 ] } },
{ "type": "Feature", "properties": { "name": "Healthmark Pharmacy", "name:en": null, "amenity": "pharmacy", "building": null, "healthcare": "pharmacy", "healthcare:speciality": null, "operator:type": null, "capacity:persons": null, "addr:full": null, "addr:city": null, "source": null, "osm_id": 5923783047, "osm_type": "nodes" }, "geometry": { "type": "Point", "coordinates": [ -0.2501499, 5.6190924 ] } },
{ "type": "Feature", "properties": { "name": "New Discovery Pharmacy", "name:en": null, "amenity": "pharmacy", "building": null, "healthcare": "pharmacy", "healthcare:speciality": null, "operator:type": null, "capacity:persons": null, "addr:full": null, "addr:city": null, "source": null, "osm_id": 2815197868, "osm_type": "nodes" }, "geometry": { "type": "Point", "coordinates": [ -0.2586139, 5.6047937 ] } },
{ "type": "Feature", "properties": { "name": "Big Maron Pharmacy", "name:en": null, "amenity": "pharmacy", "building": null, "healthcare": null, "healthcare:speciality": null, "operator:type": null, "capacity:persons": null, "addr:full": null, "addr:city": null, "source": null, "osm_id": 6314371221, "osm_type": "nodes" }, "geometry": { "type": "Point", "coordinates": [ -0.2569144, 5.6072496 ] } },
{ "type": "Feature", "properties": { "name": "Sir Swanzy Chemicals", "name:en": null, "amenity": "pharmacy", "building": null, "healthcare": "pharmacy", "healthcare:speciality": null, "operator:type": null, "capacity:persons": null, "addr:full": null, "addr:city": null, "source": null, "osm_id": 7198661876, "osm_type": "nodes" }, "geometry": { "type": "Point", "coordinates": [ -0.2583591, 5.5896952 ] } },
{ "type": "Feature", "properties": { "name": "M&G Pharmaceuticals", "name:en": null, "amenity": "pharmacy", "building": null, "healthcare": null, "healthcare:speciality": null, "operator:type": null, "capacity:persons": null, "addr:full": null, "addr:city": null, "source": null, "osm_id": 7211393385, "osm_type": "nodes" }, "geometry": { "type": "Point", "coordinates": [ -0.2113248, 5.5348169 ] } },
{ "type": "Feature", "properties": { "name": "Hills Pharmacy", "name:en": null, "amenity": "pharmacy", "building": null, "healthcare": null, "healthcare:speciality": null, "operator:type": null, "capacity:persons": null, "addr:full": null, "addr:city": null, "source": null, "osm_id": 6215799885, "osm_type": "nodes" }, "geometry": { "type": "Point", "coordinates": [ -0.2125989, 5.5452885 ] } },
{ "type": "Feature", "properties": { "name": "QuasiPharma", "name:en": null, "amenity": "pharmacy", "building": null, "healthcare": "pharmacy", "healthcare:speciality": null, "operator:type": null, "capacity:persons": null, "addr:full": null, "addr:city": null, "source": null, "osm_id": 7213787583, "osm_type": "nodes" }, "geometry": { "type": "Point", "coordinates": [ -0.1842526, 5.5526358 ] } },
{ "type": "Feature", "properties": { "name": "Global Star HealthCenter", "name:en": null, "amenity": "clinic", "building": null, "healthcare": "clinic", "healthcare:speciality": null, "operator:type": null, "capacity:persons": null, "addr:full": null, "addr:city": null, "source": null, "osm_id": 10286595293, "osm_type": "nodes" }, "geometry": { "type": "Point", "coordinates": [ -0.1818852, 5.6753628 ] } },
{ "type": "Feature", "properties": { "name": "Tofeefy Pharmacy", "name:en": null, "amenity": "pharmacy", "building": null, "healthcare": null, "healthcare:speciality": null, "operator:type": null, "capacity:persons": null, "addr:full": null, "addr:city": null, "source": null, "osm_id": 7471932854, "osm_type": "nodes" }, "geometry": { "type": "Point", "coordinates": [ -0.2469216, 5.6524842 ] } },
{ "type": "Feature", "properties": { "name": "Health Shop Mini Mart", "name:en": null, "amenity": "pharmacy", "building": null, "healthcare": null, "healthcare:speciality": null, "operator:type": null, "capacity:persons": null, "addr:full": null, "addr:city": null, "source": null, "osm_id": 1356937858, "osm_type": "nodes" }, "geometry": { "type": "Point", "coordinates": [ -0.170889, 5.6383278 ] } },
{ "type": "Feature", "properties": { "name": "Diagnostic Centre", "name:en": null, "amenity": "clinic", "building": null, "healthcare": null, "healthcare:speciality": null, "operator:type": null, "capacity:persons": null, "addr:full": null, "addr:city": "Accra", "source": null, "osm_id": 4789654972, "osm_type": "nodes" }, "geometry": { "type": "Point", "coordinates": [ -0.1742594, 5.6317096 ] } },
{ "type": "Feature", "properties": { "name": "Emmanuel Eye Clinic", "name:en": null, "amenity": "clinic", "building": null, "healthcare": null, "healthcare:speciality": null, "operator:type": null, "capacity:persons": null, "addr:full": null, "addr:city": "Accra", "source": null, "osm_id": 4780055840, "osm_type": "nodes" }, "geometry": { "type": "Point", "coordinates": [ -0.1744333, 5.6304406 ] } },
{ "type": "Feature", "properties": { "name": "Emporium Pharmacy", "name:en": null, "amenity": "pharmacy", "building": null, "healthcare": null, "healthcare:speciality": null, "operator:type": null, "capacity:persons": null, "addr:full": null, "addr:city": "Okponglo", "source": null, "osm_id": 4554919900, "osm_type": "nodes" }, "geometry": { "type": "Point", "coordinates": [ -0.1772622, 5.6413071 ] } },
{ "type": "Feature", "properties": { "name": "Pillpoint Pharmacy (Retail)", "name:en": null, "amenity": "pharmacy", "building": null, "healthcare": null, "healthcare:speciality": null, "operator:type": null, "capacity:persons": null, "addr:full": null, "addr:city": null, "source": null, "osm_id": 5300409376, "osm_type": "nodes" }, "geometry": { "type": "Point", "coordinates": [ -0.1689755, 5.6470772 ] } },
{ "type": "Feature", "properties": { "name": null, "name:en": null, "amenity": "pharmacy", "building": null, "healthcare": null, "healthcare:speciality": null, "operator:type": null, "capacity:persons": null, "addr:full": null, "addr:city": null, "source": null, "osm_id": 5995822045, "osm_type": "nodes" }, "geometry": { "type": "Point", "coordinates": [ -0.2354186, 5.5875796 ] } },
{ "type": "Feature", "properties": { "name": "Pillpoint Pharmacy", "name:en": null, "amenity": "pharmacy", "building": null, "healthcare": "pharmacy", "healthcare:speciality": null, "operator:type": null, "capacity:persons": null, "addr:full": null, "addr:city": null, "source": null, "osm_id": 7142921288, "osm_type": "nodes" }, "geometry": { "type": "Point", "coordinates": [ -0.2520716, 5.6316754 ] } },
{ "type": "Feature", "properties": { "name": "BJ Medical Centre", "name:en": null, "amenity": "clinic", "building": null, "healthcare": null, "healthcare:speciality": null, "operator:type": null, "capacity:persons": null, "addr:full": null, "addr:city": null, "source": null, "osm_id": 6475165522, "osm_type": "nodes" }, "geometry": { "type": "Point", "coordinates": [ -0.2609306, 5.6306277 ] } },
{ "type": "Feature", "properties": { "name": null, "name:en": null, "amenity": "pharmacy", "building": null, "healthcare": "pharmacy", "healthcare:speciality": null, "operator:type": null, "capacity:persons": null, "addr:full": null, "addr:city": null, "source": null, "osm_id": 9596455588, "osm_type": "nodes" }, "geometry": { "type": "Point", "coordinates": [ -0.2469702, 5.6093885 ] } },
{ "type": "Feature", "properties": { "name": "Mobimed Pharmacy", "name:en": null, "amenity": "pharmacy", "building": null, "healthcare": "pharmacy", "healthcare:speciality": null, "operator:type": null, "capacity:persons": null, "addr:full": null, "addr:city": null, "source": null, "osm_id": 6493148330, "osm_type": "nodes" }, "geometry": { "type": "Point", "coordinates": [ -0.0907846, 5.5930445 ] } },
{ "type": "Feature", "properties": { "name": "The Oak Street Clinic & Laboratory", "name:en": null, "amenity": "clinic", "building": null, "healthcare": null, "healthcare:speciality": null, "operator:type": null, "capacity:persons": null, "addr:full": null, "addr:city": null, "source": null, "osm_id": 6930474723, "osm_type": "nodes" }, "geometry": { "type": "Point", "coordinates": [ -0.0992313, 5.5908627 ] } },
{ "type": "Feature", "properties": { "name": "Amnex", "name:en": null, "amenity": "pharmacy", "building": null, "healthcare": null, "healthcare:speciality": null, "operator:type": null, "capacity:persons": null, "addr:full": null, "addr:city": null, "source": null, "osm_id": 5321471739, "osm_type": "nodes" }, "geometry": { "type": "Point", "coordinates": [ -0.0989871, 5.5880529 ] } },
{ "type": "Feature", "properties": { "name": "Polyclinic", "name:en": null, "amenity": "clinic", "building": null, "healthcare": null, "healthcare:speciality": null, "operator:type": null, "capacity:persons": null, "addr:full": null, "addr:city": null, "source": null, "osm_id": 5705985321, "osm_type": "nodes" }, "geometry": { "type": "Point", "coordinates": [ -0.0889658, 5.6128857 ] } },
{ "type": "Feature", "properties": { "name": "Danpong Pharmacy", "name:en": null, "amenity": "pharmacy", "building": null, "healthcare": null, "healthcare:speciality": null, "operator:type": null, "capacity:persons": null, "addr:full": null, "addr:city": null, "source": null, "osm_id": 6419800386, "osm_type": "nodes" }, "geometry": { "type": "Point", "coordinates": [ -0.0772346, 5.6060936 ] } },
{ "type": "Feature", "properties": { "name": "Pill Point", "name:en": null, "amenity": "pharmacy", "building": null, "healthcare": null, "healthcare:speciality": null, "operator:type": null, "capacity:persons": null, "addr:full": null, "addr:city": null, "source": null, "osm_id": 5714073662, "osm_type": "nodes" }, "geometry": { "type": "Point", "coordinates": [ -0.0812179, 5.5983927 ] } },
{ "type": "Feature", "properties": { "name": null, "name:en": null, "amenity": "pharmacy", "building": null, "healthcare": null, "healthcare:speciality": null, "operator:type": null, "capacity:persons": null, "addr:full": null, "addr:city": null, "source": null, "osm_id": 6743975908, "osm_type": "nodes" }, "geometry": { "type": "Point", "coordinates": [ -0.0925735, 5.6030406 ] } },
{ "type": "Feature", "properties": { "name": "Aide Chemists", "name:en": null, "amenity": "pharmacy", "building": null, "healthcare": null, "healthcare:speciality": null, "operator:type": null, "capacity:persons": null, "addr:full": null, "addr:city": null, "source": null, "osm_id": 5730097211, "osm_type": "nodes" }, "geometry": { "type": "Point", "coordinates": [ -0.1750694, 5.6788371 ] } },
{ "type": "Feature", "properties": { "name": "Eye Link Clinic", "name:en": null, "amenity": "doctors", "building": null, "healthcare": "doctor", "healthcare:speciality": null, "operator:type": null, "capacity:persons": null, "addr:full": null, "addr:city": null, "source": null, "osm_id": 1385353948, "osm_type": "nodes" }, "geometry": { "type": "Point", "coordinates": [ -0.2220452, 5.6124096 ] } },
{ "type": "Feature", "properties": { "name": "Claron Health International", "name:en": null, "amenity": "doctors", "building": null, "healthcare": "doctor", "healthcare:speciality": null, "operator:type": null, "capacity:persons": null, "addr:full": null, "addr:city": null, "source": null, "osm_id": 4021383012, "osm_type": "nodes" }, "geometry": { "type": "Point", "coordinates": [ -0.1822982, 5.6122457 ] } },
{ "type": "Feature", "properties": { "name": "Nyaah Pharmacy", "name:en": null, "amenity": "pharmacy", "building": null, "healthcare": null, "healthcare:speciality": null, "operator:type": null, "capacity:persons": null, "addr:full": null, "addr:city": null, "source": null, "osm_id": 4239386293, "osm_type": "nodes" }, "geometry": { "type": "Point", "coordinates": [ -0.1462456, 5.6273579 ] } },
{ "type": "Feature", "properties": { "name": "Lapaz Community Hospital", "name:en": null, "amenity": "hospital", "building": null, "healthcare": "hospital", "healthcare:speciality": null, "operator:type": null, "capacity:persons": null, "addr:full": null, "addr:city": null, "source": null, "osm_id": 2148020987, "osm_type": "nodes" }, "geometry": { "type": "Point", "coordinates": [ -0.2153604, 5.6354204 ] } },
{ "type": "Feature", "properties": { "name": null, "name:en": null, "amenity": "pharmacy", "building": null, "healthcare": null, "healthcare:speciality": null, "operator:type": null, "capacity:persons": null, "addr:full": null, "addr:city": null, "source": null, "osm_id": 7883354585, "osm_type": "nodes" }, "geometry": { "type": "Point", "coordinates": [ -0.2139386, 5.6373201 ] } },
{ "type": "Feature", "properties": { "name": "Midpoint Pharmacy", "name:en": null, "amenity": "pharmacy", "building": null, "healthcare": null, "healthcare:speciality": null, "operator:type": null, "capacity:persons": null, "addr:full": null, "addr:city": null, "source": null, "osm_id": 7933833160, "osm_type": "nodes" }, "geometry": { "type": "Point", "coordinates": [ -0.2171055, 5.6375719 ] } },
{ "type": "Feature", "properties": { "name": "Frimata Pharmacy", "name:en": null, "amenity": "pharmacy", "building": null, "healthcare": null, "healthcare:speciality": null, "operator:type": null, "capacity:persons": null, "addr:full": null, "addr:city": null, "source": null, "osm_id": 7693055793, "osm_type": "nodes" }, "geometry": { "type": "Point", "coordinates": [ -0.2268426, 5.646384 ] } },
{ "type": "Feature", "properties": { "name": "Medimart", "name:en": null, "amenity": "pharmacy", "building": null, "healthcare": null, "healthcare:speciality": null, "operator:type": null, "capacity:persons": null, "addr:full": null, "addr:city": null, "source": null, "osm_id": 6446698787, "osm_type": "nodes" }, "geometry": { "type": "Point", "coordinates": [ -0.1511863, 5.6279561 ] } },
{ "type": "Feature", "properties": { "name": "Iran Clinic", "name:en": null, "amenity": "doctors", "building": null, "healthcare": "clinic;doctor", "healthcare:speciality": null, "operator:type": "private", "capacity:persons": null, "addr:full": null, "addr:city": "Accra", "source": null, "osm_id": 1728032238, "osm_type": "nodes" }, "geometry": { "type": "Point", "coordinates": [ -0.2124418, 5.568037 ] } },
{ "type": "Feature", "properties": { "name": "Bedita", "name:en": null, "amenity": "pharmacy", "building": null, "healthcare": null, "healthcare:speciality": null, "operator:type": null, "capacity:persons": null, "addr:full": null, "addr:city": null, "source": null, "osm_id": 7051293354, "osm_type": "nodes" }, "geometry": { "type": "Point", "coordinates": [ -0.1693977, 5.6279606 ] } },
{ "type": "Feature", "properties": { "name": null, "name:en": null, "amenity": "doctors", "building": null, "healthcare": null, "healthcare:speciality": null, "operator:type": null, "capacity:persons": null, "addr:full": null, "addr:city": null, "source": null, "osm_id": 1801462419, "osm_type": "nodes" }, "geometry": { "type": "Point", "coordinates": [ -0.1720217, 5.6364024 ] } },
{ "type": "Feature", "properties": { "name": "Shalina", "name:en": null, "amenity": "clinic", "building": null, "healthcare": "clinic", "healthcare:speciality": null, "operator:type": null, "capacity:persons": null, "addr:full": null, "addr:city": null, "source": null, "osm_id": 7810005711, "osm_type": "nodes" }, "geometry": { "type": "Point", "coordinates": [ -0.2103476, 5.5660003 ] } },
{ "type": "Feature", "properties": { "name": "MBC Pharmacy", "name:en": null, "amenity": "pharmacy", "building": null, "healthcare": null, "healthcare:speciality": null, "operator:type": null, "capacity:persons": null, "addr:full": null, "addr:city": null, "source": null, "osm_id": 9132744318, "osm_type": "nodes" }, "geometry": { "type": "Point", "coordinates": [ -0.1775058, 5.7826082 ] } },
{ "type": "Feature", "properties": { "name": null, "name:en": null, "amenity": "pharmacy", "building": null, "healthcare": null, "healthcare:speciality": null, "operator:type": null, "capacity:persons": null, "addr:full": null, "addr:city": null, "source": null, "osm_id": 6908414026, "osm_type": "nodes" }, "geometry": { "type": "Point", "coordinates": [ -0.1540547, 8.144827 ] } },
{ "type": "Feature", "properties": { "name": null, "name:en": null, "amenity": "doctors", "building": null, "healthcare": "hospital", "healthcare:speciality": null, "operator:type": null, "capacity:persons": null, "addr:full": null, "addr:city": null, "source": null, "osm_id": 6058330729, "osm_type": "nodes" }, "geometry": { "type": "Point", "coordinates": [ -0.0847404, 10.8125898 ] } },
{ "type": "Feature", "properties": { "name": null, "name:en": null, "amenity": "pharmacy", "building": null, "healthcare": "pharmacy", "healthcare:speciality": null, "operator:type": null, "capacity:persons": null, "addr:full": null, "addr:city": null, "source": null, "osm_id": 7133434576, "osm_type": "nodes" }, "geometry": { "type": "Point", "coordinates": [ -0.3701711, 10.527837 ] } },
{ "type": "Feature", "properties": { "name": "Herbal", "name:en": null, "amenity": "pharmacy", "building": null, "healthcare": null, "healthcare:speciality": null, "operator:type": null, "capacity:persons": null, "addr:full": null, "addr:city": null, "source": null, "osm_id": 8572611717, "osm_type": "nodes" }, "geometry": { "type": "Point", "coordinates": [ -0.2469824, 5.5392549 ] } },
{ "type": "Feature", "properties": { "name": "Lebanon Community Hospital", "name:en": null, "amenity": "hospital", "building": null, "healthcare": null, "healthcare:speciality": null, "operator:type": null, "capacity:persons": null, "addr:full": null, "addr:city": null, "source": null, "osm_id": 9845769217, "osm_type": "nodes" }, "geometry": { "type": "Point", "coordinates": [ -0.0578471, 5.720567 ] } },
{ "type": "Feature", "properties": { "name": "MDS-Lancet Laboratories", "name:en": null, "amenity": null, "building": null, "healthcare": "laboratory", "healthcare:speciality": null, "operator:type": null, "capacity:persons": null, "addr:full": null, "addr:city": null, "source": null, "osm_id": 7631821113, "osm_type": "nodes" }, "geometry": { "type": "Point", "coordinates": [ -0.2109724, 5.6383328 ] } },
{ "type": "Feature", "properties": { "name": "Kwesi Kumah CHPs Compound", "name:en": null, "amenity": null, "building": null, "healthcare": "yes", "healthcare:speciality": null, "operator:type": null, "capacity:persons": null, "addr:full": null, "addr:city": null, "source": null, "osm_id": 8515469559, "osm_type": "nodes" }, "geometry": { "type": "Point", "coordinates": [ -0.1632476, 6.9705129 ] } },
{ "type": "Feature", "properties": { "name": "Chuchukope CHPs Compound", "name:en": null, "amenity": null, "building": null, "healthcare": "yes", "healthcare:speciality": null, "operator:type": null, "capacity:persons": null, "addr:full": null, "addr:city": null, "source": null, "osm_id": 8521394219, "osm_type": "nodes" }, "geometry": { "type": "Point", "coordinates": [ -0.1538484, 6.7186375 ] } },
{ "type": "Feature", "properties": { "name": "Mmradan CHPs Compound", "name:en": null, "amenity": null, "building": null, "healthcare": "yes", "healthcare:speciality": null, "operator:type": null, "capacity:persons": null, "addr:full": null, "addr:city": null, "source": null, "osm_id": 8515501736, "osm_type": "nodes" }, "geometry": { "type": "Point", "coordinates": [ -0.2189973, 7.0208187 ] } },
{ "type": "Feature", "properties": { "name": "Tease Island CHPs Compound", "name:en": null, "amenity": null, "building": null, "healthcare": "yes", "healthcare:speciality": null, "operator:type": null, "capacity:persons": null, "addr:full": null, "addr:city": null, "source": null, "osm_id": 8520539551, "osm_type": "nodes" }, "geometry": { "type": "Point", "coordinates": [ -0.2323986, 6.7618993 ] } },
{ "type": "Feature", "properties": { "name": "Tease Health Centre", "name:en": null, "amenity": null, "building": null, "healthcare": "yes", "healthcare:speciality": null, "operator:type": null, "capacity:persons": null, "addr:full": null, "addr:city": null, "source": null, "osm_id": 8520137031, "osm_type": "nodes" }, "geometry": { "type": "Point", "coordinates": [ -0.252574, 6.9360659 ] } },
{ "type": "Feature", "properties": { "name": "Asaaseboma CHPs Compound", "name:en": null, "amenity": "health_post", "building": null, "healthcare": "yes", "healthcare:speciality": null, "operator:type": null, "capacity:persons": null, "addr:full": null, "addr:city": null, "source": null, "osm_id": 8527685784, "osm_type": "nodes" }, "geometry": { "type": "Point", "coordinates": [ -0.3607664, 6.7453453 ] } },
{ "type": "Feature", "properties": { "name": "Adeemmra Health Centre", "name:en": null, "amenity": null, "building": null, "healthcare": "yes", "healthcare:speciality": null, "operator:type": null, "capacity:persons": null, "addr:full": null, "addr:city": null, "source": null, "osm_id": 8500460147, "osm_type": "nodes" }, "geometry": { "type": "Point", "coordinates": [ -0.0556747, 7.059876 ] } },
{ "type": "Feature", "properties": { "name": "Telad Pharmacy", "name:en": null, "amenity": "pharmacy", "building": null, "healthcare": null, "healthcare:speciality": null, "operator:type": null, "capacity:persons": null, "addr:full": null, "addr:city": null, "source": null, "osm_id": 4400511291, "osm_type": "nodes" }, "geometry": { "type": "Point", "coordinates": [ -0.1721517, 5.6927425 ] } },
{ "type": "Feature", "properties": { "name": "Diamed Diagnostical and Treatment Center", "name:en": null, "amenity": "clinic", "building": null, "healthcare": "alternative", "healthcare:speciality": null, "operator:type": null, "capacity:persons": null, "addr:full": null, "addr:city": null, "source": null, "osm_id": 9083982209, "osm_type": "nodes" }, "geometry": { "type": "Point", "coordinates": [ -0.1774079, 5.6390968 ] } },
{ "type": "Feature", "properties": { "name": "St. Lucy Eye Clinic", "name:en": null, "amenity": "clinic", "building": null, "healthcare": null, "healthcare:speciality": null, "operator:type": null, "capacity:persons": null, "addr:full": null, "addr:city": null, "source": null, "osm_id": 9825285017, "osm_type": "nodes" }, "geometry": { "type": "Point", "coordinates": [ -0.0637832, 5.6345944 ] } },
{ "type": "Feature", "properties": { "name": "Mankranso Government Hospital", "name:en": null, "amenity": "hospital", "building": null, "healthcare": null, "healthcare:speciality": null, "operator:type": null, "capacity:persons": null, "addr:full": null, "addr:city": null, "source": null, "osm_id": 7473457978, "osm_type": "nodes" }, "geometry": { "type": "Point", "coordinates": [ -1.8627434, 6.8210441 ] } },
{ "type": "Feature", "properties": { "name": "Tebrebe Clinic", "name:en": null, "amenity": "clinic", "building": null, "healthcare": "clinic", "healthcare:speciality": null, "operator:type": null, "capacity:persons": null, "addr:full": null, "addr:city": null, "source": null, "osm_id": 3842054527, "osm_type": "nodes" }, "geometry": { "type": "Point", "coordinates": [ -2.0358216, 5.2727196 ] } },
{ "type": "Feature", "properties": { "name": null, "name:en": null, "amenity": "clinic", "building": null, "healthcare": null, "healthcare:speciality": null, "operator:type": null, "capacity:persons": null, "addr:full": null, "addr:city": null, "source": null, "osm_id": 8370087740, "osm_type": "nodes" }, "geometry": { "type": "Point", "coordinates": [ -2.665354, 5.8341252 ] } },
{ "type": "Feature", "properties": { "name": "Senes Pharmacy", "name:en": null, "amenity": "pharmacy", "building": null, "healthcare": "pharmacy", "healthcare:speciality": null, "operator:type": null, "capacity:persons": null, "addr:full": null, "addr:city": "Tema", "source": null, "osm_id": 6095220985, "osm_type": "nodes" }, "geometry": { "type": "Point", "coordinates": [ -0.0012935, 5.7728011 ] } },
{ "type": "Feature", "properties": { "name": "K-Lynks pharmacy", "name:en": null, "amenity": "pharmacy", "building": null, "healthcare": null, "healthcare:speciality": null, "operator:type": null, "capacity:persons": null, "addr:full": null, "addr:city": null, "source": null, "osm_id": 8346382200, "osm_type": "nodes" }, "geometry": { "type": "Point", "coordinates": [ -0.1534856, 5.7435489 ] } },
{ "type": "Feature", "properties": { "name": "Cel Chemist", "name:en": null, "amenity": "pharmacy", "building": null, "healthcare": "pharmacy", "healthcare:speciality": null, "operator:type": null, "capacity:persons": null, "addr:full": null, "addr:city": null, "source": null, "osm_id": 9526954311, "osm_type": "nodes" }, "geometry": { "type": "Point", "coordinates": [ 0.4755858, 7.1528136 ] } },
{ "type": "Feature", "properties": { "name": "USP Aképé", "name:en": null, "amenity": "hospital", "building": null, "healthcare": null, "healthcare:speciality": null, "operator:type": null, "capacity:persons": null, "addr:full": null, "addr:city": null, "source": null, "osm_id": 10598913495, "osm_type": "nodes" }, "geometry": { "type": "Point", "coordinates": [ 1.03382, 6.265095 ] } },
{ "type": "Feature", "properties": { "name": "A & E Pharmacy", "name:en": null, "amenity": "pharmacy", "building": null, "healthcare": null, "healthcare:speciality": null, "operator:type": null, "capacity:persons": null, "addr:full": null, "addr:city": null, "source": null, "osm_id": 8070175973, "osm_type": "nodes" }, "geometry": { "type": "Point", "coordinates": [ -1.0172193, 5.2671901 ] } },
{ "type": "Feature", "properties": { "name": "Larabanga Health Clinic", "name:en": null, "amenity": "clinic", "building": null, "healthcare": null, "healthcare:speciality": null, "operator:type": null, "capacity:persons": null, "addr:full": null, "addr:city": null, "source": null, "osm_id": 7401843038, "osm_type": "nodes" }, "geometry": { "type": "Point", "coordinates": [ -1.8568477, 9.2138807 ] } },
{ "type": "Feature", "properties": { "name": "Tuba Community Maternity & Clinic", "name:en": null, "amenity": "doctors", "building": null, "healthcare": null, "healthcare:speciality": null, "operator:type": null, "capacity:persons": null, "addr:full": null, "addr:city": null, "source": null, "osm_id": 3830300489, "osm_type": "nodes" }, "geometry": { "type": "Point", "coordinates": [ -0.3931086, 5.5119999 ] } },
{ "type": "Feature", "properties": { "name": "Vero Chemists Limited", "name:en": null, "amenity": "pharmacy", "building": null, "healthcare": null, "healthcare:speciality": null, "operator:type": null, "capacity:persons": null, "addr:full": null, "addr:city": null, "source": null, "osm_id": 6091147323, "osm_type": "nodes" }, "geometry": { "type": "Point", "coordinates": [ -1.707559, 6.6986672 ] } },
{ "type": "Feature", "properties": { "name": "Western Pharmacy", "name:en": null, "amenity": "pharmacy", "building": null, "healthcare": null, "healthcare:speciality": null, "operator:type": null, "capacity:persons": null, "addr:full": null, "addr:city": null, "source": null, "osm_id": 6091146476, "osm_type": "nodes" }, "geometry": { "type": "Point", "coordinates": [ -1.6506044, 6.6997152 ] } },
{ "type": "Feature", "properties": { "name": null, "name:en": null, "amenity": "pharmacy", "building": null, "healthcare": "pharmacy", "healthcare:speciality": null, "operator:type": null, "capacity:persons": null, "addr:full": null, "addr:city": null, "source": null, "osm_id": 12283536476, "osm_type": "nodes" }, "geometry": { "type": "Point", "coordinates": [ -0.3398973, 5.6811553 ] } },
{ "type": "Feature", "properties": { "name": null, "name:en": null, "amenity": null, "building": null, "healthcare": "laboratory", "healthcare:speciality": null, "operator:type": null, "capacity:persons": null, "addr:full": null, "addr:city": null, "source": null, "osm_id": 12288248986, "osm_type": "nodes" }, "geometry": { "type": "Point", "coordinates": [ -0.187931, 5.715238 ] } },
{ "type": "Feature", "properties": { "name": null, "name:en": null, "amenity": null, "building": null, "healthcare": "centre", "healthcare:speciality": null, "operator:type": null, "capacity:persons": null, "addr:full": null, "addr:city": null, "source": null, "osm_id": 8354976968, "osm_type": "nodes" }, "geometry": { "type": "Point", "coordinates": [ -2.3475498, 9.2421451 ] } },
{ "type": "Feature", "properties": { "name": "Santrokofi Health Centre", "name:en": null, "amenity": "health_post", "building": null, "healthcare": "yes", "healthcare:speciality": null, "operator:type": null, "capacity:persons": null, "addr:full": null, "addr:city": null, "source": null, "osm_id": 8927724535, "osm_type": "nodes" }, "geometry": { "type": "Point", "coordinates": [ 0.4720388, 7.2146769 ] } },
{ "type": "Feature", "properties": { "name": "Adabraka Health Centre", "name:en": null, "amenity": "health_post", "building": null, "healthcare": "yes", "healthcare:speciality": null, "operator:type": null, "capacity:persons": null, "addr:full": null, "addr:city": null, "source": null, "osm_id": 8946652854, "osm_type": "nodes" }, "geometry": { "type": "Point", "coordinates": [ 0.4740569, 7.1640523 ] } },
{ "type": "Feature", "properties": { "name": "Kukurantumi Chps Compound", "name:en": null, "amenity": "health_post", "building": null, "healthcare": "yes", "healthcare:speciality": null, "operator:type": null, "capacity:persons": null, "addr:full": null, "addr:city": null, "source": null, "osm_id": 8946638451, "osm_type": "nodes" }, "geometry": { "type": "Point", "coordinates": [ 0.5683691, 7.2619208 ] } },
{ "type": "Feature", "properties": { "name": "Teteman CHPs Compound", "name:en": null, "amenity": null, "building": null, "healthcare": "yes", "healthcare:speciality": null, "operator:type": null, "capacity:persons": null, "addr:full": null, "addr:city": null, "source": null, "osm_id": 8614150137, "osm_type": "nodes" }, "geometry": { "type": "Point", "coordinates": [ 0.5081259, 7.3036365 ] } },
{ "type": "Feature", "properties": { "name": "Baglo Chps Compound", "name:en": null, "amenity": "health_post", "building": null, "healthcare": "yes", "healthcare:speciality": null, "operator:type": null, "capacity:persons": null, "addr:full": null, "addr:city": null, "source": null, "osm_id": 8946826473, "osm_type": "nodes" }, "geometry": { "type": "Point", "coordinates": [ 0.6378313, 7.3032359 ] } },
{ "type": "Feature", "properties": { "name": "Kpoeta (Kpɔ̃ta) CHPs Compound", "name:en": null, "amenity": null, "building": null, "healthcare": "yes", "healthcare:speciality": null, "operator:type": null, "capacity:persons": null, "addr:full": null, "addr:city": null, "source": null, "osm_id": 8583272542, "osm_type": "nodes" }, "geometry": { "type": "Point", "coordinates": [ 0.5426818, 6.9094205 ] } },
{ "type": "Feature", "properties": { "name": "Mutaru Chemist", "name:en": null, "amenity": "pharmacy", "building": null, "healthcare": "pharmacy", "healthcare:speciality": null, "operator:type": null, "capacity:persons": null, "addr:full": null, "addr:city": null, "source": null, "osm_id": 5832300522, "osm_type": "nodes" }, "geometry": { "type": "Point", "coordinates": [ -1.859255, 9.2193258 ] } },
{ "type": "Feature", "properties": { "name": "Pepmay", "name:en": null, "amenity": "pharmacy", "building": null, "healthcare": null, "healthcare:speciality": null, "operator:type": null, "capacity:persons": null, "addr:full": null, "addr:city": null, "source": null, "osm_id": 6465598585, "osm_type": "nodes" }, "geometry": { "type": "Point", "coordinates": [ -0.073848, 5.6132326 ] } },
{ "type": "Feature", "properties": { "name": null, "name:en": null, "amenity": "pharmacy", "building": null, "healthcare": null, "healthcare:speciality": null, "operator:type": null, "capacity:persons": null, "addr:full": null, "addr:city": null, "source": null, "osm_id": 8246649241, "osm_type": "nodes" }, "geometry": { "type": "Point", "coordinates": [ -2.7341031, 5.6100278 ] } },
{ "type": "Feature", "properties": { "name": "Albert Mensah Cemical store", "name:en": null, "amenity": "pharmacy", "building": null, "healthcare": "pharmacy", "healthcare:speciality": null, "operator:type": null, "capacity:persons": null, "addr:full": null, "addr:city": "Sefwi Bekwai", "source": "local knowledge;aerial imagery", "osm_id": 7619067100, "osm_type": "nodes" }, "geometry": { "type": "Point", "coordinates": [ -2.3231006, 6.1946355 ] } },
{ "type": "Feature", "properties": { "name": "Medicap Pharmacy", "name:en": null, "amenity": "pharmacy", "building": null, "healthcare": null, "healthcare:speciality": null, "operator:type": null, "capacity:persons": null, "addr:full": null, "addr:city": null, "source": null, "osm_id": 7502297591, "osm_type": "nodes" }, "geometry": { "type": "Point", "coordinates": [ -1.8612681, 6.8189792 ] } },
{ "type": "Feature", "properties": { "name": "180 Plus Pharmacy", "name:en": null, "amenity": "pharmacy", "building": null, "healthcare": "pharmacy", "healthcare:speciality": null, "operator:type": null, "capacity:persons": null, "addr:full": null, "addr:city": "Bibiani", "source": null, "osm_id": 7755276266, "osm_type": "nodes" }, "geometry": { "type": "Point", "coordinates": [ -2.310808, 6.4589467 ] } },
{ "type": "Feature", "properties": { "name": "MAG Pharmacy", "name:en": null, "amenity": "pharmacy", "building": null, "healthcare": null, "healthcare:speciality": null, "operator:type": null, "capacity:persons": null, "addr:full": null, "addr:city": null, "source": null, "osm_id": 6036650216, "osm_type": "nodes" }, "geometry": { "type": "Point", "coordinates": [ -1.5837745, 6.6879024 ] } },
{ "type": "Feature", "properties": { "name": "Frimpong Boateng Medical Center", "name:en": null, "amenity": "hospital", "building": null, "healthcare": null, "healthcare:speciality": null, "operator:type": null, "capacity:persons": null, "addr:full": null, "addr:city": null, "source": null, "osm_id": 9765918910, "osm_type": "nodes" }, "geometry": { "type": "Point", "coordinates": [ -1.8205251, 6.6615016 ] } },
{ "type": "Feature", "properties": { "name": null, "name:en": null, "amenity": "pharmacy", "building": null, "healthcare": null, "healthcare:speciality": null, "operator:type": null, "capacity:persons": null, "addr:full": null, "addr:city": null, "source": null, "osm_id": 7472405929, "osm_type": "nodes" }, "geometry": { "type": "Point", "coordinates": [ -0.2372205, 5.6512174 ] } },
{ "type": "Feature", "properties": { "name": "Pharmancy", "name:en": null, "amenity": "pharmacy", "building": null, "healthcare": "pharmacy", "healthcare:speciality": null, "operator:type": null, "capacity:persons": null, "addr:full": null, "addr:city": null, "source": null, "osm_id": 9895395243, "osm_type": "nodes" }, "geometry": { "type": "Point", "coordinates": [ 0.1273096, 6.1024164 ] } },
{ "type": "Feature", "properties": { "name": null, "name:en": null, "amenity": "pharmacy", "building": null, "healthcare": null, "healthcare:speciality": null, "operator:type": null, "capacity:persons": null, "addr:full": null, "addr:city": null, "source": null, "osm_id": 8201473920, "osm_type": "nodes" }, "geometry": { "type": "Point", "coordinates": [ 0.6953913, 6.5465359 ] } },
{ "type": "Feature", "properties": { "name": null, "name:en": null, "amenity": "clinic", "building": null, "healthcare": null, "healthcare:speciality": null, "operator:type": null, "capacity:persons": null, "addr:full": null, "addr:city": null, "source": null, "osm_id": 8201474520, "osm_type": "nodes" }, "geometry": { "type": "Point", "coordinates": [ 0.6581066, 6.5527816 ] } },
{ "type": "Feature", "properties": { "name": "OMNI Healthcare", "name:en": null, "amenity": "doctors", "building": null, "healthcare": null, "healthcare:speciality": null, "operator:type": null, "capacity:persons": null, "addr:full": null, "addr:city": null, "source": null, "osm_id": 1426161179, "osm_type": "nodes" }, "geometry": { "type": "Point", "coordinates": [ -0.1923825, 5.6167345 ] } },
{ "type": "Feature", "properties": { "name": "Bethel Dental Clinic", "name:en": null, "amenity": "dentist", "building": null, "healthcare": null, "healthcare:speciality": null, "operator:type": null, "capacity:persons": null, "addr:full": null, "addr:city": null, "source": null, "osm_id": 1700719799, "osm_type": "nodes" }, "geometry": { "type": "Point", "coordinates": [ -0.192542, 5.6168026 ] } },
{ "type": "Feature", "properties": { "name": "Dodi-Mempeasem CHPS Compound", "name:en": null, "amenity": "health_post", "building": null, "healthcare": "yes", "healthcare:speciality": null, "operator:type": null, "capacity:persons": null, "addr:full": null, "addr:city": null, "source": null, "osm_id": 8645228617, "osm_type": "nodes" }, "geometry": { "type": "Point", "coordinates": [ 0.5161291, 7.6338203 ] } },
{ "type": "Feature", "properties": { "name": "George kwasi Ataah over the counter chemical store", "name:en": null, "amenity": "chemists", "building": null, "healthcare": "over the counter medicine", "healthcare:speciality": null, "operator:type": null, "capacity:persons": null, "addr:full": null, "addr:city": "Sefwi Bekwai", "source": null, "osm_id": 7606543530, "osm_type": "nodes" }, "geometry": { "type": "Point", "coordinates": [ -2.3227125, 6.1945062 ] } },
{ "type": "Feature", "properties": { "name": "Nana Amoako Diagnotic Limited", "name:en": null, "amenity": null, "building": null, "healthcare": "laboratory", "healthcare:speciality": null, "operator:type": null, "capacity:persons": null, "addr:full": null, "addr:city": "Sefwi Bekwai", "source": null, "osm_id": 7697394222, "osm_type": "nodes" }, "geometry": { "type": "Point", "coordinates": [ -2.325109, 6.1875114 ] } },
{ "type": "Feature", "properties": { "name": "Samanhyia Health Centre", "name:en": null, "amenity": null, "building": null, "healthcare": "yes", "healthcare:speciality": null, "operator:type": null, "capacity:persons": null, "addr:full": null, "addr:city": null, "source": null, "osm_id": 8515492308, "osm_type": "nodes" }, "geometry": { "type": "Point", "coordinates": [ -0.1693854, 6.9974695 ] } },
{ "type": "Feature", "properties": { "name": "Dortorpong Sikasu CHPs Compound", "name:en": null, "amenity": null, "building": null, "healthcare": "yes", "healthcare:speciality": null, "operator:type": null, "capacity:persons": null, "addr:full": null, "addr:city": null, "source": null, "osm_id": 8527662897, "osm_type": "nodes" }, "geometry": { "type": "Point", "coordinates": [ -0.3456442, 6.7377159 ] } },
{ "type": "Feature", "properties": { "name": "Namolgo Clinic", "name:en": null, "amenity": "clinic", "building": null, "healthcare": "clinic", "healthcare:speciality": null, "operator:type": null, "capacity:persons": null, "addr:full": null, "addr:city": null, "source": null, "osm_id": 7086685099, "osm_type": "nodes" }, "geometry": { "type": "Point", "coordinates": [ -0.7213148, 10.7373492 ] } },
{ "type": "Feature", "properties": { "name": "Samuel Ntifful Pharmarcy", "name:en": null, "amenity": "pharmacy", "building": null, "healthcare": null, "healthcare:speciality": null, "operator:type": null, "capacity:persons": null, "addr:full": null, "addr:city": null, "source": null, "osm_id": 8142883220, "osm_type": "nodes" }, "geometry": { "type": "Point", "coordinates": [ -1.1216926, 5.1741366 ] } },
{ "type": "Feature", "properties": { "name": "Medical & Dental Clini6", "name:en": null, "amenity": "clinic", "building": null, "healthcare": "clinic", "healthcare:speciality": null, "operator:type": null, "capacity:persons": null, "addr:full": null, "addr:city": null, "source": null, "osm_id": 6882941356, "osm_type": "nodes" }, "geometry": { "type": "Point", "coordinates": [ -0.1537796, 5.6264187 ] } },
{ "type": "Feature", "properties": { "name": "A & E Pharmacy", "name:en": null, "amenity": "pharmacy", "building": null, "healthcare": null, "healthcare:speciality": null, "operator:type": null, "capacity:persons": null, "addr:full": null, "addr:city": null, "source": null, "osm_id": 8070178813, "osm_type": "nodes" }, "geometry": { "type": "Point", "coordinates": [ -1.0204381, 5.2650332 ] } },
{ "type": "Feature", "properties": { "name": null, "name:en": null, "amenity": "pharmacy", "building": null, "healthcare": null, "healthcare:speciality": null, "operator:type": null, "capacity:persons": null, "addr:full": null, "addr:city": null, "source": null, "osm_id": 9132744117, "osm_type": "nodes" }, "geometry": { "type": "Point", "coordinates": [ -0.158601, 5.7904749 ] } },
{ "type": "Feature", "properties": { "name": "Honuta CHPs Compound", "name:en": null, "amenity": "clinic", "building": null, "healthcare": "yes", "healthcare:speciality": null, "operator:type": null, "capacity:persons": null, "addr:full": null, "addr:city": null, "source": null, "osm_id": 8575002761, "osm_type": "nodes" }, "geometry": { "type": "Point", "coordinates": [ 0.5186765, 6.846869 ] } },
{ "type": "Feature", "properties": { "name": "Marie Stopes", "name:en": null, "amenity": "clinic", "building": null, "healthcare": "clinic", "healthcare:speciality": null, "operator:type": null, "capacity:persons": null, "addr:full": null, "addr:city": "Accra", "source": null, "osm_id": 8112000302, "osm_type": "nodes" }, "geometry": { "type": "Point", "coordinates": [ -0.2137475, 5.5771803 ] } },
{ "type": "Feature", "properties": { "name": null, "name:en": null, "amenity": "pharmacy", "building": null, "healthcare": "pharmacy", "healthcare:speciality": null, "operator:type": null, "capacity:persons": null, "addr:full": null, "addr:city": null, "source": null, "osm_id": 5752205059, "osm_type": "nodes" }, "geometry": { "type": "Point", "coordinates": [ -0.2165687, 5.5823037 ] } },
{ "type": "Feature", "properties": { "name": null, "name:en": null, "amenity": "pharmacy", "building": null, "healthcare": "pharmacy", "healthcare:speciality": null, "operator:type": null, "capacity:persons": null, "addr:full": null, "addr:city": null, "source": null, "osm_id": 8909723941, "osm_type": "nodes" }, "geometry": { "type": "Point", "coordinates": [ -0.0153169, 5.6775386 ] } },
{ "type": "Feature", "properties": { "name": "City Chemicals", "name:en": null, "amenity": null, "building": null, "healthcare": "pharmacy", "healthcare:speciality": null, "operator:type": null, "capacity:persons": null, "addr:full": null, "addr:city": null, "source": null, "osm_id": 7388379167, "osm_type": "nodes" }, "geometry": { "type": "Point", "coordinates": [ -0.6286506, 5.3482088 ] } },
{ "type": "Feature", "properties": { "name": "La Medicare Ltd", "name:en": null, "amenity": "clinic", "building": null, "healthcare": null, "healthcare:speciality": null, "operator:type": null, "capacity:persons": null, "addr:full": null, "addr:city": null, "source": null, "osm_id": 6897763704, "osm_type": "nodes" }, "geometry": { "type": "Point", "coordinates": [ -0.1555304, 5.5577702 ] } },
{ "type": "Feature", "properties": { "name": "New Vision Dental", "name:en": null, "amenity": "dentist", "building": null, "healthcare": "dentist", "healthcare:speciality": null, "operator:type": null, "capacity:persons": null, "addr:full": null, "addr:city": null, "source": null, "osm_id": 6448342769, "osm_type": "nodes" }, "geometry": { "type": "Point", "coordinates": [ -0.1528478, 5.5773627 ] } },
{ "type": "Feature", "properties": { "name": "PalmAid Pharmacy", "name:en": null, "amenity": "pharmacy", "building": null, "healthcare": null, "healthcare:speciality": null, "operator:type": null, "capacity:persons": null, "addr:full": null, "addr:city": null, "source": null, "osm_id": 7282918527, "osm_type": "nodes" }, "geometry": { "type": "Point", "coordinates": [ -0.1592984, 5.5735786 ] } },
{ "type": "Feature", "properties": { "name": "CHPS", "name:en": null, "amenity": "clinic", "building": null, "healthcare": null, "healthcare:speciality": null, "operator:type": null, "capacity:persons": null, "addr:full": null, "addr:city": null, "source": null, "osm_id": 4449818564, "osm_type": "nodes" }, "geometry": { "type": "Point", "coordinates": [ -0.8971085, 10.0688655 ] } },
{ "type": "Feature", "properties": { "name": null, "name:en": null, "amenity": "pharmacy", "building": null, "healthcare": "pharmacy", "healthcare:speciality": null, "operator:type": null, "capacity:persons": null, "addr:full": null, "addr:city": null, "source": null, "osm_id": 6989603203, "osm_type": "nodes" }, "geometry": { "type": "Point", "coordinates": [ -0.8682704, 10.776952 ] } },
{ "type": "Feature", "properties": { "name": "Madam Marry Adekurah", "name:en": null, "amenity": "pharmacy", "building": null, "healthcare": "pharmacy", "healthcare:speciality": null, "operator:type": null, "capacity:persons": null, "addr:full": null, "addr:city": null, "source": null, "osm_id": 6916218475, "osm_type": "nodes" }, "geometry": { "type": "Point", "coordinates": [ -0.791633, 10.7915153 ] } },
{ "type": "Feature", "properties": { "name": "E.B Pharmacy", "name:en": null, "amenity": "pharmacy", "building": null, "healthcare": "pharmacy", "healthcare:speciality": null, "operator:type": null, "capacity:persons": null, "addr:full": null, "addr:city": null, "source": null, "osm_id": 6544018643, "osm_type": "nodes" }, "geometry": { "type": "Point", "coordinates": [ -0.8376991, 9.4012446 ] } },
{ "type": "Feature", "properties": { "name": null, "name:en": null, "amenity": "pharmacy", "building": null, "healthcare": "pharmacy", "healthcare:speciality": null, "operator:type": null, "capacity:persons": null, "addr:full": null, "addr:city": null, "source": null, "osm_id": 7047185822, "osm_type": "nodes" }, "geometry": { "type": "Point", "coordinates": [ -0.8631999, 9.4142493 ] } },
{ "type": "Feature", "properties": { "name": "Salbelia Licenced Chemical Store", "name:en": null, "amenity": "pharmacy", "building": null, "healthcare": "pharmacy", "healthcare:speciality": null, "operator:type": null, "capacity:persons": null, "addr:full": null, "addr:city": null, "source": null, "osm_id": 6657453042, "osm_type": "nodes" }, "geometry": { "type": "Point", "coordinates": [ -0.844909, 9.4529281 ] } },
{ "type": "Feature", "properties": { "name": null, "name:en": null, "amenity": "clinic", "building": null, "healthcare": "clinic", "healthcare:speciality": null, "operator:type": null, "capacity:persons": null, "addr:full": null, "addr:city": null, "source": null, "osm_id": 6628636244, "osm_type": "nodes" }, "geometry": { "type": "Point", "coordinates": [ -0.8687112, 9.4218691 ] } },
{ "type": "Feature", "properties": { "name": "Baka Pharmacy", "name:en": null, "amenity": "pharmacy", "building": null, "healthcare": "pharmacy", "healthcare:speciality": null, "operator:type": null, "capacity:persons": null, "addr:full": null, "addr:city": null, "source": null, "osm_id": 6644128284, "osm_type": "nodes" }, "geometry": { "type": "Point", "coordinates": [ -0.8769929, 9.4043346 ] } },
{ "type": "Feature", "properties": { "name": null, "name:en": null, "amenity": "pharmacy", "building": null, "healthcare": "pharmacy", "healthcare:speciality": null, "operator:type": null, "capacity:persons": null, "addr:full": null, "addr:city": null, "source": null, "osm_id": 6644165397, "osm_type": "nodes" }, "geometry": { "type": "Point", "coordinates": [ -0.9008554, 9.4040771 ] } },
{ "type": "Feature", "properties": { "name": "God Cares Community Hospital", "name:en": null, "amenity": "clinic", "building": null, "healthcare": "clinic", "healthcare:speciality": null, "operator:type": null, "capacity:persons": null, "addr:full": null, "addr:city": null, "source": null, "osm_id": 6644165408, "osm_type": "nodes" }, "geometry": { "type": "Point", "coordinates": [ -0.9115151, 9.4039648 ] } },
{ "type": "Feature", "properties": { "name": "Fuo Community Hospital", "name:en": null, "amenity": "clinic", "building": null, "healthcare": "clinic", "healthcare:speciality": null, "operator:type": null, "capacity:persons": null, "addr:full": null, "addr:city": null, "source": null, "osm_id": 6657452997, "osm_type": "nodes" },