{
"type": "FeatureCollection",
"name": "hotosm_gha_financial_services_points_geojson",
"features": [
{ "type": "Feature", "properties": { "name": "Redeemer Microfinance Limited", "name:en": null, "amenity": "bank", "operator": null, "network": null, "addr:full": null, "addr:city": null, "source": null, "osm_id": 6425598053, "osm_type": "nodes" }, "geometry": { "type": "Point", "coordinates": [ -0.2596956, 6.0949728 ] } },
{ "type": "Feature", "properties": { "name": null, "name:en": null, "amenity": "bureau_de_change", "operator": null, "network": null, "addr:full": null, "addr:city": null, "source": null, "osm_id": 5919903149, "osm_type": "nodes" }, "geometry": { "type": "Point", "coordinates": [ -0.0143999, 5.6823018 ] } },
{ "type": "Feature", "properties": { "name": "GN Savings and Loans", "name:en": null, "amenity": "bank", "operator": null, "network": null, "addr:full": null, "addr:city": null, "source": null, "osm_id": 6310946367, "osm_type": "nodes" }, "geometry": { "type": "Point", "coordinates": [ -0.2570033, 6.0939071 ] } },
{ "type": "Feature", "properties": { "name": "Advans Savings and Loans", "name:en": null, "amenity": "bank", "operator": null, "network": null, "addr:full": null, "addr:city": null, "source": null, "osm_id": 6384227280, "osm_type": "nodes" }, "geometry": { "type": "Point", "coordinates": [ -0.255007, 6.0920126 ] } },
{ "type": "Feature", "properties": { "name": "Sinapi Aba Savings & Loans", "name:en": null, "amenity": "bank", "operator": null, "network": null, "addr:full": null, "addr:city": null, "source": null, "osm_id": 6432727497, "osm_type": "nodes" }, "geometry": { "type": "Point", "coordinates": [ -0.2600032, 6.0917326 ] } },
{ "type": "Feature", "properties": { "name": "SG-SSB", "name:en": null, "amenity": "atm", "operator": "SG-SSB", "network": null, "addr:full": null, "addr:city": null, "source": null, "osm_id": 1356985956, "osm_type": "nodes" }, "geometry": { "type": "Point", "coordinates": [ -0.0147341, 5.6877914 ] } },
{ "type": "Feature", "properties": { "name": "UMB Bank", "name:en": null, "amenity": "atm", "operator": null, "network": null, "addr:full": null, "addr:city": null, "source": null, "osm_id": 6362050874, "osm_type": "nodes" }, "geometry": { "type": "Point", "coordinates": [ -0.2599069, 6.0948214 ] } },
{ "type": "Feature", "properties": { "name": "Mumuadu Rural Bank", "name:en": null, "amenity": "bank", "operator": null, "network": null, "addr:full": null, "addr:city": null, "source": null, "osm_id": 6301756588, "osm_type": "nodes" }, "geometry": { "type": "Point", "coordinates": [ -0.2605212, 6.0923909 ] } },
{ "type": "Feature", "properties": { "name": "Akwapim Rural Bank", "name:en": null, "amenity": "bank", "operator": null, "network": null, "addr:full": null, "addr:city": null, "source": null, "osm_id": 6255880861, "osm_type": "nodes" }, "geometry": { "type": "Point", "coordinates": [ -0.0778559, 6.0152888 ] } },
{ "type": "Feature", "properties": { "name": null, "name:en": null, "amenity": "mobile_money_agent", "operator": null, "network": null, "addr:full": null, "addr:city": null, "source": null, "osm_id": 9123076619, "osm_type": "nodes" }, "geometry": { "type": "Point", "coordinates": [ -0.1684437, 5.6864146 ] } },
{ "type": "Feature", "properties": { "name": "Akwapim Rural Bank", "name:en": null, "amenity": "bank", "operator": null, "network": null, "addr:full": null, "addr:city": null, "source": null, "osm_id": 6234193976, "osm_type": "nodes" }, "geometry": { "type": "Point", "coordinates": [ -0.2555749, 6.0916256 ] } },
{ "type": "Feature", "properties": { "name": "Upper Manya Kro Rural Bank", "name:en": null, "amenity": "bank", "operator": null, "network": null, "addr:full": null, "addr:city": null, "source": null, "osm_id": 6330229545, "osm_type": "nodes" }, "geometry": { "type": "Point", "coordinates": [ -0.271139, 6.1156013 ] } },
{ "type": "Feature", "properties": { "name": "Emmajets Forex Bureau", "name:en": null, "amenity": "bureau_de_change", "operator": null, "network": null, "addr:full": null, "addr:city": null, "source": null, "osm_id": 9458262317, "osm_type": "nodes" }, "geometry": { "type": "Point", "coordinates": [ -0.1693486, 5.7062736 ] } },
{ "type": "Feature", "properties": { "name": "umb", "name:en": null, "amenity": "atm", "operator": null, "network": null, "addr:full": null, "addr:city": null, "source": null, "osm_id": 10246594296, "osm_type": "nodes" }, "geometry": { "type": "Point", "coordinates": [ -0.1749372, 5.717652 ] } },
{ "type": "Feature", "properties": { "name": "Ecobank ATM", "name:en": null, "amenity": "atm", "operator": null, "network": null, "addr:full": null, "addr:city": null, "source": null, "osm_id": 9404588796, "osm_type": "nodes" }, "geometry": { "type": "Point", "coordinates": [ -0.1937605, 5.6842419 ] } },
{ "type": "Feature", "properties": { "name": "CAL Bank", "name:en": null, "amenity": "bank", "operator": null, "network": null, "addr:full": null, "addr:city": null, "source": null, "osm_id": 3020162324, "osm_type": "nodes" }, "geometry": { "type": "Point", "coordinates": [ -0.1750649, 5.5668121 ] } },
{ "type": "Feature", "properties": { "name": "Trendy Innovations", "name:en": null, "amenity": "mobile_money_agent", "operator": null, "network": null, "addr:full": null, "addr:city": null, "source": null, "osm_id": 9404606978, "osm_type": "nodes" }, "geometry": { "type": "Point", "coordinates": [ -0.2027633, 5.6959906 ] } },
{ "type": "Feature", "properties": { "name": "Better Days Ventures", "name:en": null, "amenity": "mobile_money_agent", "operator": null, "network": null, "addr:full": null, "addr:city": null, "source": null, "osm_id": 8879367607, "osm_type": "nodes" }, "geometry": { "type": "Point", "coordinates": [ -0.1992646, 5.6922374 ] } },
{ "type": "Feature", "properties": { "name": "Amaki Enterprise", "name:en": null, "amenity": "mobile_money_agent", "operator": null, "network": null, "addr:full": null, "addr:city": null, "source": null, "osm_id": 8964049061, "osm_type": "nodes" }, "geometry": { "type": "Point", "coordinates": [ -0.2007426, 5.6941041 ] } },
{ "type": "Feature", "properties": { "name": "Nasara Cash", "name:en": null, "amenity": "mobile_money_agent", "operator": null, "network": null, "addr:full": null, "addr:city": null, "source": null, "osm_id": 7618334307, "osm_type": "nodes" }, "geometry": { "type": "Point", "coordinates": [ -0.198695, 5.6917832 ] } },
{ "type": "Feature", "properties": { "name": "La Community Bank", "name:en": null, "amenity": "bank", "operator": null, "network": null, "addr:full": null, "addr:city": null, "source": null, "osm_id": 5016517632, "osm_type": "nodes" }, "geometry": { "type": "Point", "coordinates": [ -0.1584794, 5.5601656 ] } },
{ "type": "Feature", "properties": { "name": null, "name:en": null, "amenity": "mobile_money_agent", "operator": null, "network": null, "addr:full": null, "addr:city": null, "source": null, "osm_id": 10289374608, "osm_type": "nodes" }, "geometry": { "type": "Point", "coordinates": [ -0.1835599, 5.6777884 ] } },
{ "type": "Feature", "properties": { "name": "Hawice Entreprise", "name:en": null, "amenity": "mobile_money_agent", "operator": null, "network": "MTN Mobile Money", "addr:full": null, "addr:city": "Accra", "source": null, "osm_id": 6992328732, "osm_type": "nodes" }, "geometry": { "type": "Point", "coordinates": [ -0.2023995, 5.5830453 ] } },
{ "type": "Feature", "properties": { "name": null, "name:en": null, "amenity": "atm", "operator": "GCB (Ghana Commercial Bank)", "network": null, "addr:full": null, "addr:city": null, "source": null, "osm_id": 10296827010, "osm_type": "nodes" }, "geometry": { "type": "Point", "coordinates": [ -0.1861759, 5.6669675 ] } },
{ "type": "Feature", "properties": { "name": "Prudential Bank Haatso", "name:en": null, "amenity": "bank", "operator": null, "network": null, "addr:full": null, "addr:city": null, "source": null, "osm_id": 7634524008, "osm_type": "nodes" }, "geometry": { "type": "Point", "coordinates": [ -0.20437, 5.6668143 ] } },
{ "type": "Feature", "properties": { "name": "CAL Bank", "name:en": null, "amenity": "atm", "operator": null, "network": null, "addr:full": null, "addr:city": null, "source": null, "osm_id": 6476613981, "osm_type": "nodes" }, "geometry": { "type": "Point", "coordinates": [ -0.2045345, 5.6723813 ] } },
{ "type": "Feature", "properties": { "name": "Prudential", "name:en": null, "amenity": "atm", "operator": null, "network": null, "addr:full": null, "addr:city": null, "source": null, "osm_id": 5629497742, "osm_type": "nodes" }, "geometry": { "type": "Point", "coordinates": [ -0.1816749, 5.562087 ] } },
{ "type": "Feature", "properties": { "name": null, "name:en": null, "amenity": "atm", "operator": "Stanbic", "network": null, "addr:full": null, "addr:city": null, "source": null, "osm_id": 5086960822, "osm_type": "nodes" }, "geometry": { "type": "Point", "coordinates": [ -0.1391059, 5.6328593 ] } },
{ "type": "Feature", "properties": { "name": "SG-SSB (Societe Generale)", "name:en": null, "amenity": "atm", "operator": "SG-SSB", "network": null, "addr:full": null, "addr:city": null, "source": null, "osm_id": 1207720484, "osm_type": "nodes" }, "geometry": { "type": "Point", "coordinates": [ -0.1754817, 5.6158087 ] } },
{ "type": "Feature", "properties": { "name": null, "name:en": null, "amenity": "mobile_money_agent", "operator": null, "network": null, "addr:full": null, "addr:city": null, "source": null, "osm_id": 9146782567, "osm_type": "nodes" }, "geometry": { "type": "Point", "coordinates": [ -0.1585088, 5.5738064 ] } },
{ "type": "Feature", "properties": { "name": "Ganest Forex Bureau", "name:en": null, "amenity": "bureau_de_change", "operator": null, "network": null, "addr:full": null, "addr:city": null, "source": null, "osm_id": 6387882585, "osm_type": "nodes" }, "geometry": { "type": "Point", "coordinates": [ -0.1684811, 5.5695421 ] } },
{ "type": "Feature", "properties": { "name": "OmniBank", "name:en": null, "amenity": "bank", "operator": null, "network": null, "addr:full": null, "addr:city": null, "source": null, "osm_id": 5212443525, "osm_type": "nodes" }, "geometry": { "type": "Point", "coordinates": [ -0.1690156, 5.5713884 ] } },
{ "type": "Feature", "properties": { "name": "GN Bank", "name:en": null, "amenity": "bank", "operator": null, "network": null, "addr:full": null, "addr:city": null, "source": null, "osm_id": 5949410026, "osm_type": "nodes" }, "geometry": { "type": "Point", "coordinates": [ -0.2222119, 5.5860176 ] } },
{ "type": "Feature", "properties": { "name": "Opportunity International", "name:en": null, "amenity": "bank", "operator": null, "network": null, "addr:full": null, "addr:city": null, "source": null, "osm_id": 4350176755, "osm_type": "nodes" }, "geometry": { "type": "Point", "coordinates": [ -0.0064141, 5.6475824 ] } },
{ "type": "Feature", "properties": { "name": "Zenith Bank", "name:en": null, "amenity": "bank", "operator": null, "network": null, "addr:full": null, "addr:city": null, "source": null, "osm_id": 6314508822, "osm_type": "nodes" }, "geometry": { "type": "Point", "coordinates": [ -0.0033668, 5.6480078 ] } },
{ "type": "Feature", "properties": { "name": "Premium Bank", "name:en": null, "amenity": "bank", "operator": null, "network": null, "addr:full": null, "addr:city": null, "source": null, "osm_id": 5679141037, "osm_type": "nodes" }, "geometry": { "type": "Point", "coordinates": [ -0.0008866, 5.6470806 ] } },
{ "type": "Feature", "properties": { "name": "Access Bank", "name:en": null, "amenity": "bank", "operator": null, "network": null, "addr:full": null, "addr:city": null, "source": null, "osm_id": 6457770268, "osm_type": "nodes" }, "geometry": { "type": "Point", "coordinates": [ 0.0028319, 5.6372003 ] } },
{ "type": "Feature", "properties": { "name": "Stanbic Bank", "name:en": null, "amenity": "atm", "operator": "Stanbic Bank", "network": null, "addr:full": null, "addr:city": null, "source": null, "osm_id": 3688650361, "osm_type": "nodes" }, "geometry": { "type": "Point", "coordinates": [ -0.1921497, 5.6176973 ] } },
{ "type": "Feature", "properties": { "name": "Kwahu Rural Bank", "name:en": null, "amenity": "bank", "operator": null, "network": null, "addr:full": null, "addr:city": null, "source": null, "osm_id": 6310952322, "osm_type": "nodes" }, "geometry": { "type": "Point", "coordinates": [ -0.2599068, 6.091191 ] } },
{ "type": "Feature", "properties": { "name": "GN Savings & Loans", "name:en": null, "amenity": "bank", "operator": null, "network": null, "addr:full": null, "addr:city": null, "source": null, "osm_id": 6362050876, "osm_type": "nodes" }, "geometry": { "type": "Point", "coordinates": [ -0.2575058, 6.0905227 ] } },
{ "type": "Feature", "properties": { "name": "Dumpong Rural Bank", "name:en": null, "amenity": "bank", "operator": null, "network": null, "addr:full": null, "addr:city": null, "source": null, "osm_id": 6389452148, "osm_type": "nodes" }, "geometry": { "type": "Point", "coordinates": [ -0.2560515, 6.0905919 ] } },
{ "type": "Feature", "properties": { "name": "UMB", "name:en": null, "amenity": "bank", "operator": null, "network": null, "addr:full": null, "addr:city": null, "source": null, "osm_id": 6256563363, "osm_type": "nodes" }, "geometry": { "type": "Point", "coordinates": [ -0.2574908, 6.0908824 ] } },
{ "type": "Feature", "properties": { "name": "Zenith", "name:en": null, "amenity": "atm", "operator": null, "network": null, "addr:full": null, "addr:city": null, "source": null, "osm_id": 5744469515, "osm_type": "nodes" }, "geometry": { "type": "Point", "coordinates": [ -0.1891882, 5.6516214 ] } },
{ "type": "Feature", "properties": { "name": "Ouchib", "name:en": null, "amenity": "bureau_de_change", "operator": null, "network": null, "addr:full": null, "addr:city": null, "source": null, "osm_id": 5916096296, "osm_type": "nodes" }, "geometry": { "type": "Point", "coordinates": [ -0.1983776, 5.6011421 ] } },
{ "type": "Feature", "properties": { "name": null, "name:en": null, "amenity": "atm", "operator": null, "network": null, "addr:full": null, "addr:city": null, "source": null, "osm_id": 4270124274, "osm_type": "nodes" }, "geometry": { "type": "Point", "coordinates": [ -0.1896081, 5.5998852 ] } },
{ "type": "Feature", "properties": { "name": "Zenith Bank", "name:en": null, "amenity": "bank", "operator": null, "network": null, "addr:full": null, "addr:city": null, "source": null, "osm_id": 1215470069, "osm_type": "nodes" }, "geometry": { "type": "Point", "coordinates": [ -0.1875338, 5.5995633 ] } },
{ "type": "Feature", "properties": { "name": null, "name:en": null, "amenity": "atm", "operator": "GCB Bank", "network": null, "addr:full": null, "addr:city": null, "source": null, "osm_id": 3073599633, "osm_type": "nodes" }, "geometry": { "type": "Point", "coordinates": [ -0.2358127, 5.5660796 ] } },
{ "type": "Feature", "properties": { "name": "Melbond Microfinance Limited", "name:en": null, "amenity": "bank", "operator": null, "network": null, "addr:full": null, "addr:city": null, "source": null, "osm_id": 5956716134, "osm_type": "nodes" }, "geometry": { "type": "Point", "coordinates": [ -0.2347061, 5.5671559 ] } },
{ "type": "Feature", "properties": { "name": "Equity", "name:en": null, "amenity": "bank", "operator": null, "network": null, "addr:full": null, "addr:city": null, "source": null, "osm_id": 5717931135, "osm_type": "nodes" }, "geometry": { "type": "Point", "coordinates": [ -0.2337136, 5.5658308 ] } },
{ "type": "Feature", "properties": { "name": "Republic Bank", "name:en": null, "amenity": "atm", "operator": "Republic Bank (Ghana) Limited", "network": null, "addr:full": null, "addr:city": null, "source": null, "osm_id": 5331313633, "osm_type": "nodes" }, "geometry": { "type": "Point", "coordinates": [ -0.2257313, 5.5646586 ] } },
{ "type": "Feature", "properties": { "name": null, "name:en": null, "amenity": "atm", "operator": "CAL Bank", "network": null, "addr:full": null, "addr:city": null, "source": null, "osm_id": 3046100328, "osm_type": "nodes" }, "geometry": { "type": "Point", "coordinates": [ -0.2198294, 5.5682472 ] } },
{ "type": "Feature", "properties": { "name": null, "name:en": null, "amenity": "atm", "operator": "GCB", "network": null, "addr:full": null, "addr:city": null, "source": null, "osm_id": 6042184089, "osm_type": "nodes" }, "geometry": { "type": "Point", "coordinates": [ -0.3625793, 6.2249582 ] } },
{ "type": "Feature", "properties": { "name": "YiloStar Microfinance Limited", "name:en": null, "amenity": "bank", "operator": null, "network": null, "addr:full": null, "addr:city": null, "source": null, "osm_id": 6797202129, "osm_type": "nodes" }, "geometry": { "type": "Point", "coordinates": [ -0.2126504, 6.1274983 ] } },
{ "type": "Feature", "properties": { "name": "A-Square Forex Bureau", "name:en": null, "amenity": "bureau_de_change", "operator": null, "network": null, "addr:full": null, "addr:city": null, "source": null, "osm_id": 10286595278, "osm_type": "nodes" }, "geometry": { "type": "Point", "coordinates": [ -0.1813782, 5.6777046 ] } },
{ "type": "Feature", "properties": { "name": "The True Saving& Susu Investment", "name:en": null, "amenity": "mobile_money_agent", "operator": null, "network": "MTN Mobile Money", "addr:full": null, "addr:city": "Accra", "source": "Open Cities Accra / GARID- Field Survey", "osm_id": 7020608841, "osm_type": "nodes" }, "geometry": { "type": "Point", "coordinates": [ -0.2038411, 5.5845537 ] } },
{ "type": "Feature", "properties": { "name": null, "name:en": null, "amenity": "atm", "operator": "Zenith", "network": null, "addr:full": null, "addr:city": null, "source": null, "osm_id": 1749654667, "osm_type": "nodes" }, "geometry": { "type": "Point", "coordinates": [ -0.1809973, 5.5933967 ] } },
{ "type": "Feature", "properties": { "name": "Inter Money", "name:en": null, "amenity": "bureau_de_change", "operator": null, "network": null, "addr:full": null, "addr:city": null, "source": null, "osm_id": 7319562239, "osm_type": "nodes" }, "geometry": { "type": "Point", "coordinates": [ -0.2695253, 5.6586925 ] } },
{ "type": "Feature", "properties": { "name": "Best Point", "name:en": null, "amenity": "atm", "operator": null, "network": null, "addr:full": null, "addr:city": null, "source": null, "osm_id": 5078026279, "osm_type": "nodes" }, "geometry": { "type": "Point", "coordinates": [ -0.2066448, 5.5451641 ] } },
{ "type": "Feature", "properties": { "name": null, "name:en": null, "amenity": "bureau_de_change", "operator": null, "network": null, "addr:full": null, "addr:city": null, "source": null, "osm_id": 6691783481, "osm_type": "nodes" }, "geometry": { "type": "Point", "coordinates": [ -0.1070731, 5.608452 ] } },
{ "type": "Feature", "properties": { "name": "Sahel Sahara Bank", "name:en": "Sahel Sahara Bank", "amenity": "bank", "operator": null, "network": null, "addr:full": null, "addr:city": null, "source": null, "osm_id": 5084500027, "osm_type": "nodes" }, "geometry": { "type": "Point", "coordinates": [ -0.1260457, 5.6381781 ] } },
{ "type": "Feature", "properties": { "name": "Fidelity Bank", "name:en": null, "amenity": "bank", "operator": null, "network": null, "addr:full": null, "addr:city": null, "source": null, "osm_id": 9795357517, "osm_type": "nodes" }, "geometry": { "type": "Point", "coordinates": [ -0.1818739, 5.5606857 ] } },
{ "type": "Feature", "properties": { "name": "Royals Forex Bureau", "name:en": null, "amenity": "bureau_de_change", "operator": null, "network": null, "addr:full": null, "addr:city": null, "source": null, "osm_id": 5809827463, "osm_type": "nodes" }, "geometry": { "type": "Point", "coordinates": [ -0.1824372, 5.5605011 ] } },
{ "type": "Feature", "properties": { "name": "Service Integrity Savings and Loans", "name:en": null, "amenity": "bank", "operator": null, "network": null, "addr:full": null, "addr:city": null, "source": null, "osm_id": 7944408084, "osm_type": "nodes" }, "geometry": { "type": "Point", "coordinates": [ -0.1550847, 5.5792072 ] } },
{ "type": "Feature", "properties": { "name": null, "name:en": null, "amenity": "atm", "operator": null, "network": null, "addr:full": null, "addr:city": null, "source": null, "osm_id": 5548656821, "osm_type": "nodes" }, "geometry": { "type": "Point", "coordinates": [ -0.154983, 5.5792282 ] } },
{ "type": "Feature", "properties": { "name": "NIB", "name:en": null, "amenity": "atm", "operator": null, "network": null, "addr:full": null, "addr:city": null, "source": null, "osm_id": 5548748021, "osm_type": "nodes" }, "geometry": { "type": "Point", "coordinates": [ -0.1556571, 5.5795848 ] } },
{ "type": "Feature", "properties": { "name": "Ecobank", "name:en": null, "amenity": "bank", "operator": null, "network": null, "addr:full": null, "addr:city": null, "source": null, "osm_id": 3229726702, "osm_type": "nodes" }, "geometry": { "type": "Point", "coordinates": [ -0.174211, 5.5686827 ] } },
{ "type": "Feature", "properties": { "name": null, "name:en": null, "amenity": "mobile_money_agent", "operator": null, "network": null, "addr:full": null, "addr:city": null, "source": null, "osm_id": 9146862618, "osm_type": "nodes" }, "geometry": { "type": "Point", "coordinates": [ -0.2075418, 5.607846 ] } },
{ "type": "Feature", "properties": { "name": "Omnibank", "name:en": null, "amenity": "bank", "operator": null, "network": null, "addr:full": null, "addr:city": null, "source": null, "osm_id": 5735682181, "osm_type": "nodes" }, "geometry": { "type": "Point", "coordinates": [ -0.2088417, 5.6088274 ] } },
{ "type": "Feature", "properties": { "name": "DHL", "name:en": null, "amenity": "post_office", "operator": null, "network": null, "addr:full": null, "addr:city": null, "source": null, "osm_id": 6039829428, "osm_type": "nodes" }, "geometry": { "type": "Point", "coordinates": [ -0.2357539, 5.599035 ] } },
{ "type": "Feature", "properties": { "name": "Equity Savings and Loans", "name:en": null, "amenity": "bank", "operator": null, "network": null, "addr:full": null, "addr:city": null, "source": null, "osm_id": 5199710726, "osm_type": "nodes" }, "geometry": { "type": "Point", "coordinates": [ -0.2470811, 5.6071169 ] } },
{ "type": "Feature", "properties": { "name": "Fidelity Bank", "name:en": null, "amenity": "bank", "operator": null, "network": null, "addr:full": null, "addr:city": null, "source": null, "osm_id": 3123797173, "osm_type": "nodes" }, "geometry": { "type": "Point", "coordinates": [ -0.2465384, 5.6061167 ] } },
{ "type": "Feature", "properties": { "name": "DHL Retail Outlet", "name:en": null, "amenity": "post_office", "operator": null, "network": null, "addr:full": null, "addr:city": null, "source": null, "osm_id": 6408898030, "osm_type": "nodes" }, "geometry": { "type": "Point", "coordinates": [ -0.2469762, 5.6063671 ] } },
{ "type": "Feature", "properties": { "name": "Glosap Forex Bureau", "name:en": null, "amenity": "bureau_de_change", "operator": null, "network": null, "addr:full": null, "addr:city": null, "source": "local knowledge", "osm_id": 5022636728, "osm_type": "nodes" }, "geometry": { "type": "Point", "coordinates": [ -0.1813762, 5.5906416 ] } },
{ "type": "Feature", "properties": { "name": "Imani Forex Bureau", "name:en": null, "amenity": "bureau_de_change", "operator": null, "network": null, "addr:full": null, "addr:city": null, "source": null, "osm_id": 5770177155, "osm_type": "nodes" }, "geometry": { "type": "Point", "coordinates": [ -0.1947071, 5.5987006 ] } },
{ "type": "Feature", "properties": { "name": "Three Saints", "name:en": null, "amenity": "bureau_de_change", "operator": null, "network": null, "addr:full": null, "addr:city": null, "source": null, "osm_id": 6798992189, "osm_type": "nodes" }, "geometry": { "type": "Point", "coordinates": [ -0.0727145, 5.6233502 ] } },
{ "type": "Feature", "properties": { "name": "Uni credit", "name:en": null, "amenity": "bank", "operator": null, "network": null, "addr:full": null, "addr:city": null, "source": null, "osm_id": 6433598785, "osm_type": "nodes" }, "geometry": { "type": "Point", "coordinates": [ -0.0835453, 5.5969368 ] } },
{ "type": "Feature", "properties": { "name": "Tyco Forex Bureau", "name:en": null, "amenity": "bureau_de_change", "operator": null, "network": null, "addr:full": null, "addr:city": null, "source": null, "osm_id": 6790064708, "osm_type": "nodes" }, "geometry": { "type": "Point", "coordinates": [ -0.0832252, 5.5971813 ] } },
{ "type": "Feature", "properties": { "name": null, "name:en": null, "amenity": "atm", "operator": null, "network": null, "addr:full": null, "addr:city": null, "source": null, "osm_id": 5464042122, "osm_type": "nodes" }, "geometry": { "type": "Point", "coordinates": [ -0.168203, 5.6595586 ] } },
{ "type": "Feature", "properties": { "name": "United Bank for Africa", "name:en": null, "amenity": "bank", "operator": null, "network": null, "addr:full": null, "addr:city": null, "source": null, "osm_id": 9595225679, "osm_type": "nodes" }, "geometry": { "type": "Point", "coordinates": [ -0.2023885, 5.6128221 ] } },
{ "type": "Feature", "properties": { "name": "JT Bank", "name:en": null, "amenity": "bank", "operator": null, "network": null, "addr:full": null, "addr:city": null, "source": null, "osm_id": 1748466721, "osm_type": "nodes" }, "geometry": { "type": "Point", "coordinates": [ -0.1767647, 5.59956 ] } },
{ "type": "Feature", "properties": { "name": "GCB Bank", "name:en": null, "amenity": "bank", "operator": null, "network": null, "addr:full": null, "addr:city": null, "source": null, "osm_id": 5858470457, "osm_type": "nodes" }, "geometry": { "type": "Point", "coordinates": [ -0.17081, 5.6087379 ] } },
{ "type": "Feature", "properties": { "name": "umb", "name:en": null, "amenity": "atm", "operator": null, "network": null, "addr:full": null, "addr:city": null, "source": null, "osm_id": 10623187222, "osm_type": "nodes" }, "geometry": { "type": "Point", "coordinates": [ -0.1752817, 5.6034747 ] } },
{ "type": "Feature", "properties": { "name": "Societe General Ghana", "name:en": null, "amenity": "bank", "operator": null, "network": null, "addr:full": null, "addr:city": null, "source": null, "osm_id": 5209797475, "osm_type": "nodes" }, "geometry": { "type": "Point", "coordinates": [ -0.2301057, 5.6167992 ] } },
{ "type": "Feature", "properties": { "name": "FirstTrust Savings and Loans", "name:en": null, "amenity": "bank", "operator": null, "network": null, "addr:full": null, "addr:city": null, "source": null, "osm_id": 5776820742, "osm_type": "nodes" }, "geometry": { "type": "Point", "coordinates": [ -0.2016082, 5.61619 ] } },
{ "type": "Feature", "properties": { "name": "Tonom Forex Bureau", "name:en": null, "amenity": "bureau_de_change", "operator": null, "network": null, "addr:full": null, "addr:city": null, "source": null, "osm_id": 7082043560, "osm_type": "nodes" }, "geometry": { "type": "Point", "coordinates": [ -0.2169089, 5.5804118 ] } },
{ "type": "Feature", "properties": { "name": "Gold Coast Fund Management", "name:en": null, "amenity": "bank", "operator": null, "network": null, "addr:full": null, "addr:city": null, "source": null, "osm_id": 4377128892, "osm_type": "nodes" }, "geometry": { "type": "Point", "coordinates": [ -0.2011792, 5.5586144 ] } },
{ "type": "Feature", "properties": { "name": "Forex Bureau Limited", "name:en": null, "amenity": "bureau_de_change", "operator": null, "network": null, "addr:full": null, "addr:city": null, "source": null, "osm_id": 6125864911, "osm_type": "nodes" }, "geometry": { "type": "Point", "coordinates": [ -0.2008708, 5.5586349 ] } },
{ "type": "Feature", "properties": { "name": "Stanbic", "name:en": null, "amenity": "bank", "operator": null, "network": null, "addr:full": null, "addr:city": null, "source": null, "osm_id": 1999639230, "osm_type": "nodes" }, "geometry": { "type": "Point", "coordinates": [ -0.198722, 5.5601595 ] } },
{ "type": "Feature", "properties": { "name": null, "name:en": null, "amenity": "bureau_de_change", "operator": null, "network": null, "addr:full": null, "addr:city": null, "source": null, "osm_id": 6437976665, "osm_type": "nodes" }, "geometry": { "type": "Point", "coordinates": [ -0.202207, 5.5633068 ] } },
{ "type": "Feature", "properties": { "name": "GCB", "name:en": null, "amenity": "atm", "operator": null, "network": null, "addr:full": null, "addr:city": null, "source": null, "osm_id": 5139471416, "osm_type": "nodes" }, "geometry": { "type": "Point", "coordinates": [ -0.2168483, 5.5546911 ] } },
{ "type": "Feature", "properties": { "name": "UniCredit Ghana Limited", "name:en": null, "amenity": "bank", "operator": null, "network": null, "addr:full": null, "addr:city": null, "source": null, "osm_id": 5010002169, "osm_type": "nodes" }, "geometry": { "type": "Point", "coordinates": [ -0.2310382, 5.5586728 ] } },
{ "type": "Feature", "properties": { "name": "Izone Kaneshie", "name:en": null, "amenity": "money_transfer", "operator": null, "network": null, "addr:full": null, "addr:city": null, "source": null, "osm_id": 5990081464, "osm_type": "nodes" }, "geometry": { "type": "Point", "coordinates": [ -0.2320848, 5.5635263 ] } },
{ "type": "Feature", "properties": { "name": "Mobile Money", "name:en": null, "amenity": "bank", "operator": null, "network": null, "addr:full": null, "addr:city": null, "source": null, "osm_id": 7693278438, "osm_type": "nodes" }, "geometry": { "type": "Point", "coordinates": [ -0.2321308, 5.5633996 ] } },
{ "type": "Feature", "properties": { "name": null, "name:en": null, "amenity": "atm", "operator": "GCB", "network": null, "addr:full": null, "addr:city": null, "source": null, "osm_id": 8461324417, "osm_type": "nodes" }, "geometry": { "type": "Point", "coordinates": [ -0.2285526, 5.5629541 ] } },
{ "type": "Feature", "properties": { "name": null, "name:en": null, "amenity": "atm", "operator": "CGB", "network": null, "addr:full": null, "addr:city": null, "source": null, "osm_id": 8572227118, "osm_type": "nodes" }, "geometry": { "type": "Point", "coordinates": [ -0.1520491, 5.6424621 ] } },
{ "type": "Feature", "properties": { "name": null, "name:en": null, "amenity": "atm", "operator": "Stanbic Bank", "network": null, "addr:full": null, "addr:city": null, "source": null, "osm_id": 5220423605, "osm_type": "nodes" }, "geometry": { "type": "Point", "coordinates": [ -0.15209, 5.642473 ] } },
{ "type": "Feature", "properties": { "name": null, "name:en": null, "amenity": "atm", "operator": null, "network": null, "addr:full": null, "addr:city": null, "source": null, "osm_id": 567464504, "osm_type": "nodes" }, "geometry": { "type": "Point", "coordinates": [ -0.1518119, 5.6423906 ] } },
{ "type": "Feature", "properties": { "name": "Big J", "name:en": null, "amenity": "bureau_de_change", "operator": null, "network": null, "addr:full": null, "addr:city": null, "source": null, "osm_id": 5912740364, "osm_type": "nodes" }, "geometry": { "type": "Point", "coordinates": [ -0.1497662, 5.6467688 ] } },
{ "type": "Feature", "properties": { "name": "Multibility Microfinance", "name:en": null, "amenity": "bank", "operator": null, "network": null, "addr:full": null, "addr:city": null, "source": null, "osm_id": 5210017235, "osm_type": "nodes" }, "geometry": { "type": "Point", "coordinates": [ -0.1312573, 5.656918 ] } },
{ "type": "Feature", "properties": { "name": "CAL Bank", "name:en": null, "amenity": "atm", "operator": null, "network": null, "addr:full": null, "addr:city": null, "source": null, "osm_id": 5301563453, "osm_type": "nodes" }, "geometry": { "type": "Point", "coordinates": [ -0.1263866, 5.6754228 ] } },
{ "type": "Feature", "properties": { "name": "OMI Bank", "name:en": null, "amenity": "bank", "operator": null, "network": null, "addr:full": null, "addr:city": null, "source": null, "osm_id": 5705936321, "osm_type": "nodes" }, "geometry": { "type": "Point", "coordinates": [ -0.0924251, 5.6300969 ] } },
{ "type": "Feature", "properties": { "name": null, "name:en": null, "amenity": "mobile_money_agent", "operator": null, "network": null, "addr:full": null, "addr:city": null, "source": null, "osm_id": 6109011678, "osm_type": "nodes" }, "geometry": { "type": "Point", "coordinates": [ -0.0010521, 5.7739243 ] } },
{ "type": "Feature", "properties": { "name": null, "name:en": null, "amenity": "mobile_money_agent", "operator": null, "network": null, "addr:full": null, "addr:city": null, "source": null, "osm_id": 9123087917, "osm_type": "nodes" }, "geometry": { "type": "Point", "coordinates": [ -0.1604851, 5.6775407 ] } },
{ "type": "Feature", "properties": { "name": null, "name:en": null, "amenity": "bank", "operator": null, "network": null, "addr:full": null, "addr:city": null, "source": null, "osm_id": 4127961943, "osm_type": "nodes" }, "geometry": { "type": "Point", "coordinates": [ -0.1638114, 5.6774667 ] } },
{ "type": "Feature", "properties": { "name": null, "name:en": null, "amenity": "post_office", "operator": null, "network": null, "addr:full": null, "addr:city": null, "source": null, "osm_id": 7128109078, "osm_type": "nodes" }, "geometry": { "type": "Point", "coordinates": [ -0.159423, 5.6774802 ] } },
{ "type": "Feature", "properties": { "name": null, "name:en": null, "amenity": "mobile_money_agent", "operator": null, "network": null, "addr:full": null, "addr:city": null, "source": null, "osm_id": 9123059080, "osm_type": "nodes" }, "geometry": { "type": "Point", "coordinates": [ -0.159899, 5.6775499 ] } },
{ "type": "Feature", "properties": { "name": "umb", "name:en": null, "amenity": "bank", "operator": null, "network": null, "addr:full": null, "addr:city": null, "source": null, "osm_id": 4988381303, "osm_type": "nodes" }, "geometry": { "type": "Point", "coordinates": [ -0.1654528, 5.6595227 ] } },
{ "type": "Feature", "properties": { "name": "CAL Bank", "name:en": null, "amenity": "atm", "operator": null, "network": null, "addr:full": null, "addr:city": null, "source": null, "osm_id": 6293326229, "osm_type": "nodes" }, "geometry": { "type": "Point", "coordinates": [ -0.1650662, 5.7063182 ] } },
{ "type": "Feature", "properties": { "name": "Ecobank", "name:en": null, "amenity": "atm", "operator": "Ecobank", "network": null, "addr:full": null, "addr:city": null, "source": null, "osm_id": 6016629687, "osm_type": "nodes" }, "geometry": { "type": "Point", "coordinates": [ -0.1601217, 5.7269847 ] } },
{ "type": "Feature", "properties": { "name": "Stanbic", "name:en": null, "amenity": "atm", "operator": null, "network": null, "addr:full": null, "addr:city": null, "source": null, "osm_id": 5029455807, "osm_type": "nodes" }, "geometry": { "type": "Point", "coordinates": [ -0.1432509, 5.68599 ] } },
{ "type": "Feature", "properties": { "name": "Stanbic", "name:en": null, "amenity": "atm", "operator": null, "network": null, "addr:full": null, "addr:city": null, "source": null, "osm_id": 5464042126, "osm_type": "nodes" }, "geometry": { "type": "Point", "coordinates": [ -0.1774304, 5.6600823 ] } },
{ "type": "Feature", "properties": { "name": "Mama Grace Susu Entreprise", "name:en": null, "amenity": "bank", "operator": null, "network": null, "addr:full": null, "addr:city": "Accra", "source": "Open Cities Accra / GARID- Field Survey", "osm_id": 6987284853, "osm_type": "nodes" }, "geometry": { "type": "Point", "coordinates": [ -0.1978017, 5.5844349 ] } },
{ "type": "Feature", "properties": { "name": "Ecobank", "name:en": null, "amenity": "bank", "operator": null, "network": null, "addr:full": null, "addr:city": null, "source": null, "osm_id": 6967537031, "osm_type": "nodes" }, "geometry": { "type": "Point", "coordinates": [ -0.2130522, 5.5595095 ] } },
{ "type": "Feature", "properties": { "name": "Nayaba Forex Bureaux", "name:en": null, "amenity": "bureau_de_change", "operator": null, "network": null, "addr:full": null, "addr:city": null, "source": null, "osm_id": 5953419104, "osm_type": "nodes" }, "geometry": { "type": "Point", "coordinates": [ -0.2081803, 5.551599 ] } },
{ "type": "Feature", "properties": { "name": "umb", "name:en": null, "amenity": "bank", "operator": null, "network": null, "addr:full": null, "addr:city": null, "source": null, "osm_id": 5022636643, "osm_type": "nodes" }, "geometry": { "type": "Point", "coordinates": [ -0.210197, 5.5489185 ] } },
{ "type": "Feature", "properties": { "name": "ARB Apex Bank", "name:en": null, "amenity": "bank", "operator": null, "network": null, "addr:full": null, "addr:city": null, "source": null, "osm_id": 3674496828, "osm_type": "nodes" }, "geometry": { "type": "Point", "coordinates": [ -0.1943377, 5.5610364 ] } },
{ "type": "Feature", "properties": { "name": null, "name:en": null, "amenity": "atm", "operator": "ADB", "network": null, "addr:full": null, "addr:city": null, "source": null, "osm_id": 5577297470, "osm_type": "nodes" }, "geometry": { "type": "Point", "coordinates": [ -0.1913609, 5.563196 ] } },
{ "type": "Feature", "properties": { "name": "Premium Bank", "name:en": null, "amenity": "bank", "operator": null, "network": null, "addr:full": null, "addr:city": null, "source": null, "osm_id": 7082168897, "osm_type": "nodes" }, "geometry": { "type": "Point", "coordinates": [ -0.1866406, 5.5679429 ] } },
{ "type": "Feature", "properties": { "name": null, "name:en": null, "amenity": "bureau_de_change", "operator": null, "network": null, "addr:full": null, "addr:city": null, "source": null, "osm_id": 10154915782, "osm_type": "nodes" }, "geometry": { "type": "Point", "coordinates": [ -0.1974553, 5.5702465 ] } },
{ "type": "Feature", "properties": { "name": "uniBank", "name:en": null, "amenity": "bank", "operator": null, "network": null, "addr:full": null, "addr:city": null, "source": null, "osm_id": 4348179190, "osm_type": "nodes" }, "geometry": { "type": "Point", "coordinates": [ -0.2075632, 5.5728619 ] } },
{ "type": "Feature", "properties": { "name": null, "name:en": null, "amenity": "mobile_money_agent", "operator": null, "network": null, "addr:full": null, "addr:city": null, "source": null, "osm_id": 9123082484, "osm_type": "nodes" }, "geometry": { "type": "Point", "coordinates": [ -0.1576281, 5.6444589 ] } },
{ "type": "Feature", "properties": { "name": "Energybank accra", "name:en": "Energybank accra", "amenity": "bank", "operator": null, "network": null, "addr:full": null, "addr:city": null, "source": null, "osm_id": 4678136996, "osm_type": "nodes" }, "geometry": { "type": "Point", "coordinates": [ -0.2118749, 5.5456699 ] } },
{ "type": "Feature", "properties": { "name": "Swift Cash Forex Bureau", "name:en": null, "amenity": "bureau_de_change", "operator": null, "network": null, "addr:full": null, "addr:city": null, "source": null, "osm_id": 6786113321, "osm_type": "nodes" }, "geometry": { "type": "Point", "coordinates": [ -0.1825232, 5.5534514 ] } },
{ "type": "Feature", "properties": { "name": null, "name:en": null, "amenity": "mobile_money_agent", "operator": null, "network": null, "addr:full": null, "addr:city": "Accra", "source": null, "osm_id": 6992328547, "osm_type": "nodes" }, "geometry": { "type": "Point", "coordinates": [ -0.2018228, 5.5829802 ] } },
{ "type": "Feature", "properties": { "name": "UMB", "name:en": null, "amenity": "atm", "operator": null, "network": null, "addr:full": null, "addr:city": null, "source": null, "osm_id": 7526151278, "osm_type": "nodes" }, "geometry": { "type": "Point", "coordinates": [ -0.2473942, 5.6446099 ] } },
{ "type": "Feature", "properties": { "name": "Stanbic", "name:en": null, "amenity": "atm", "operator": null, "network": null, "addr:full": null, "addr:city": null, "source": null, "osm_id": 7526172658, "osm_type": "nodes" }, "geometry": { "type": "Point", "coordinates": [ -0.247402, 5.6446213 ] } },
{ "type": "Feature", "properties": { "name": "Step Close", "name:en": null, "amenity": "bureau_de_change", "operator": null, "network": null, "addr:full": null, "addr:city": "Accra", "source": null, "osm_id": 2152138377, "osm_type": "nodes" }, "geometry": { "type": "Point", "coordinates": [ -0.2377396, 5.6424716 ] } },
{ "type": "Feature", "properties": { "name": "Ecobank", "name:en": null, "amenity": "bank", "operator": null, "network": null, "addr:full": null, "addr:city": null, "source": null, "osm_id": 6519893588, "osm_type": "nodes" }, "geometry": { "type": "Point", "coordinates": [ -0.2387501, 5.6659283 ] } },
{ "type": "Feature", "properties": { "name": "UMB", "name:en": null, "amenity": "atm", "operator": null, "network": null, "addr:full": null, "addr:city": null, "source": null, "osm_id": 6755673228, "osm_type": "nodes" }, "geometry": { "type": "Point", "coordinates": [ -0.1746693, 5.6301937 ] } },
{ "type": "Feature", "properties": { "name": "DHL", "name:en": null, "amenity": "post_office", "operator": null, "network": null, "addr:full": null, "addr:city": null, "source": null, "osm_id": 6828943362, "osm_type": "nodes" }, "geometry": { "type": "Point", "coordinates": [ -0.1790256, 5.6480878 ] } },
{ "type": "Feature", "properties": { "name": "Chambers Forex Bureau", "name:en": null, "amenity": "bureau_de_change", "operator": null, "network": null, "addr:full": null, "addr:city": null, "source": null, "osm_id": 5300409858, "osm_type": "nodes" }, "geometry": { "type": "Point", "coordinates": [ -0.1751237, 5.6412227 ] } },
{ "type": "Feature", "properties": { "name": "ROD Forex Bureau", "name:en": null, "amenity": "bureau_de_change", "operator": null, "network": null, "addr:full": null, "addr:city": null, "source": null, "osm_id": 5235962350, "osm_type": "nodes" }, "geometry": { "type": "Point", "coordinates": [ -0.1737806, 5.6410696 ] } },
{ "type": "Feature", "properties": { "name": "CredAbility Investment and Microfinance Limited", "name:en": null, "amenity": "bank", "operator": null, "network": null, "addr:full": null, "addr:city": null, "source": null, "osm_id": 5235962942, "osm_type": "nodes" }, "geometry": { "type": "Point", "coordinates": [ -0.1733576, 5.6293733 ] } },
{ "type": "Feature", "properties": { "name": "GN Bank", "name:en": null, "amenity": "bank", "operator": null, "network": null, "addr:full": null, "addr:city": null, "source": null, "osm_id": 5235963361, "osm_type": "nodes" }, "geometry": { "type": "Point", "coordinates": [ -0.1736266, 5.6415187 ] } },
{ "type": "Feature", "properties": { "name": "JJ Forex Bureau", "name:en": null, "amenity": "bureau_de_change", "operator": null, "network": null, "addr:full": null, "addr:city": null, "source": null, "osm_id": 5963528281, "osm_type": "nodes" }, "geometry": { "type": "Point", "coordinates": [ -0.2397642, 5.6012321 ] } },
{ "type": "Feature", "properties": { "name": "Izone", "name:en": null, "amenity": "mobile_money_agent", "operator": null, "network": null, "addr:full": null, "addr:city": null, "source": "Open Cities Accra / GARID- Field Survey", "osm_id": 5694750132, "osm_type": "nodes" }, "geometry": { "type": "Point", "coordinates": [ -0.2488614, 5.6163179 ] } },
{ "type": "Feature", "properties": { "name": "CAL Bank", "name:en": null, "amenity": "atm", "operator": null, "network": null, "addr:full": null, "addr:city": null, "source": null, "osm_id": 6700350653, "osm_type": "nodes" }, "geometry": { "type": "Point", "coordinates": [ -0.0993451, 5.587739 ] } },
{ "type": "Feature", "properties": { "name": "UMB", "name:en": null, "amenity": "atm", "operator": "UMB", "network": null, "addr:full": null, "addr:city": null, "source": null, "osm_id": 7238982603, "osm_type": "nodes" }, "geometry": { "type": "Point", "coordinates": [ -0.099916, 5.5874418 ] } },
{ "type": "Feature", "properties": { "name": "Ocean Capital Microfinance", "name:en": null, "amenity": "bank", "operator": null, "network": null, "addr:full": null, "addr:city": null, "source": "Open Cities Accra / GARID- Field Survey", "osm_id": 6985982863, "osm_type": "nodes" }, "geometry": { "type": "Point", "coordinates": [ -0.2073224, 5.5875881 ] } },
{ "type": "Feature", "properties": { "name": "UMB", "name:en": null, "amenity": "bank", "operator": null, "network": null, "addr:full": null, "addr:city": null, "source": null, "osm_id": 6772166712, "osm_type": "nodes" }, "geometry": { "type": "Point", "coordinates": [ -0.1726432, 5.6809024 ] } },
{ "type": "Feature", "properties": { "name": "Opportunity International", "name:en": null, "amenity": "bank", "operator": null, "network": null, "addr:full": null, "addr:city": null, "source": null, "osm_id": 10302144289, "osm_type": "nodes" }, "geometry": { "type": "Point", "coordinates": [ -0.1731342, 5.6797374 ] } },
{ "type": "Feature", "properties": { "name": "Umar Murjanatu", "name:en": null, "amenity": "mobile_money_agent", "operator": null, "network": null, "addr:full": null, "addr:city": null, "source": null, "osm_id": 10296674135, "osm_type": "nodes" }, "geometry": { "type": "Point", "coordinates": [ -0.1776591, 5.6778129 ] } },
{ "type": "Feature", "properties": { "name": null, "name:en": null, "amenity": "atm", "operator": "Cal Bank", "network": null, "addr:full": null, "addr:city": null, "source": null, "osm_id": 5754683874, "osm_type": "nodes" }, "geometry": { "type": "Point", "coordinates": [ -0.1775753, 5.6673956 ] } },
{ "type": "Feature", "properties": { "name": "Agyapong Forex Bureau", "name:en": null, "amenity": "bureau_de_change", "operator": null, "network": null, "addr:full": null, "addr:city": "Accra", "source": "Open Cities Accra / GARID- Field Survey", "osm_id": 6985230147, "osm_type": "nodes" }, "geometry": { "type": "Point", "coordinates": [ -0.2031202, 5.5793151 ] } },
{ "type": "Feature", "properties": { "name": "Zenith Bank", "name:en": null, "amenity": "bank", "operator": null, "network": null, "addr:full": null, "addr:city": null, "source": null, "osm_id": 8875559221, "osm_type": "nodes" }, "geometry": { "type": "Point", "coordinates": [ -0.1431358, 5.6306111 ] } },
{ "type": "Feature", "properties": { "name": "Energy Bank", "name:en": null, "amenity": "bank", "operator": null, "network": null, "addr:full": null, "addr:city": null, "source": null, "osm_id": 5086960921, "osm_type": "nodes" }, "geometry": { "type": "Point", "coordinates": [ -0.1431862, 5.6302936 ] } },
{ "type": "Feature", "properties": { "name": "UMB", "name:en": null, "amenity": "atm", "operator": null, "network": null, "addr:full": null, "addr:city": null, "source": null, "osm_id": 6504993550, "osm_type": "nodes" }, "geometry": { "type": "Point", "coordinates": [ -0.2094948, 5.6388272 ] } },
{ "type": "Feature", "properties": { "name": "UMB", "name:en": null, "amenity": "atm", "operator": null, "network": null, "addr:full": null, "addr:city": null, "source": null, "osm_id": 7852458060, "osm_type": "nodes" }, "geometry": { "type": "Point", "coordinates": [ -0.209461, 5.6388537 ] } },
{ "type": "Feature", "properties": { "name": "Stanbic Bank", "name:en": null, "amenity": "atm", "operator": "Stanbic Bank", "network": null, "addr:full": null, "addr:city": null, "source": null, "osm_id": 6504992214, "osm_type": "nodes" }, "geometry": { "type": "Point", "coordinates": [ -0.2094688, 5.6388567 ] } },
{ "type": "Feature", "properties": { "name": "GCB Bank", "name:en": null, "amenity": "bank", "operator": "Ghana Commercial Bank", "network": null, "addr:full": null, "addr:city": null, "source": null, "osm_id": 5117082200, "osm_type": "nodes" }, "geometry": { "type": "Point", "coordinates": [ -0.2039563, 5.6670529 ] } },
{ "type": "Feature", "properties": { "name": "Ecobank", "name:en": null, "amenity": "atm", "operator": "Ecobank", "network": null, "addr:full": null, "addr:city": null, "source": null, "osm_id": 6290688885, "osm_type": "nodes" }, "geometry": { "type": "Point", "coordinates": [ -0.1545004, 5.6265079 ] } },
{ "type": "Feature", "properties": { "name": "GCB Bank", "name:en": null, "amenity": "atm", "operator": "GCB Bank", "network": null, "addr:full": null, "addr:city": null, "source": null, "osm_id": 4987994167, "osm_type": "nodes" }, "geometry": { "type": "Point", "coordinates": [ -0.2290899, 5.5357511 ] } },
{ "type": "Feature", "properties": { "name": null, "name:en": null, "amenity": "bureau_de_change", "operator": null, "network": null, "addr:full": null, "addr:city": null, "source": null, "osm_id": 6824974781, "osm_type": "nodes" }, "geometry": { "type": "Point", "coordinates": [ -0.1515575, 5.6267376 ] } },
{ "type": "Feature", "properties": { "name": "SGL Royal Kapita", "name:en": null, "amenity": "bank", "operator": null, "network": null, "addr:full": null, "addr:city": null, "source": null, "osm_id": 5235962945, "osm_type": "nodes" }, "geometry": { "type": "Point", "coordinates": [ -0.1719767, 5.638429 ] } },
{ "type": "Feature", "properties": { "name": "Ecobank", "name:en": null, "amenity": "atm", "operator": "Ecobank", "network": null, "addr:full": null, "addr:city": null, "source": "local knowledge", "osm_id": 5706054115, "osm_type": "nodes" }, "geometry": { "type": "Point", "coordinates": [ -0.2158832, 5.5717914 ] } },
{ "type": "Feature", "properties": { "name": "Kejetia Post Office", "name:en": null, "amenity": "post_office", "operator": "Ghana Post", "network": null, "addr:full": null, "addr:city": null, "source": null, "osm_id": 10752314112, "osm_type": "nodes" }, "geometry": { "type": "Point", "coordinates": [ -1.6239622, 6.69807 ] } },
{ "type": "Feature", "properties": { "name": "Moneyboxx HQ", "name:en": null, "amenity": "bank", "operator": null, "network": null, "addr:full": null, "addr:city": null, "source": null, "osm_id": 6181692286, "osm_type": "nodes" }, "geometry": { "type": "Point", "coordinates": [ -0.2143702, 5.6045714 ] } },
{ "type": "Feature", "properties": { "name": "Esiama Post Office", "name:en": null, "amenity": "post_office", "operator": "Ghana Post", "network": null, "addr:full": null, "addr:city": null, "source": null, "osm_id": 7742948185, "osm_type": "nodes" }, "geometry": { "type": "Point", "coordinates": [ -2.3511254, 4.9387746 ] } },
{ "type": "Feature", "properties": { "name": "GCB Bank", "name:en": null, "amenity": "bank", "operator": "GCB Bank Limited", "network": null, "addr:full": null, "addr:city": null, "source": null, "osm_id": 6258002516, "osm_type": "nodes" }, "geometry": { "type": "Point", "coordinates": [ -0.225429, 5.6029626 ] } },
{ "type": "Feature", "properties": { "name": "Market Avenue (Swedru) Post Office", "name:en": null, "amenity": "post_office", "operator": "Ghana Post", "network": null, "addr:full": null, "addr:city": null, "source": null, "osm_id": 10742997326, "osm_type": "nodes" }, "geometry": { "type": "Point", "coordinates": [ -0.7005709, 5.5376309 ] } },
{ "type": "Feature", "properties": { "name": "GN Bank", "name:en": null, "amenity": "bank", "operator": null, "network": null, "addr:full": null, "addr:city": null, "source": null, "osm_id": 6546822628, "osm_type": "nodes" }, "geometry": { "type": "Point", "coordinates": [ -0.6580849, 10.8656247 ] } },
{ "type": "Feature", "properties": { "name": "Women's World Banking Ghana", "name:en": null, "amenity": "bank", "operator": null, "network": null, "addr:full": null, "addr:city": null, "source": null, "osm_id": 6258001696, "osm_type": "nodes" }, "geometry": { "type": "Point", "coordinates": [ -0.2255398, 5.6062545 ] } },
{ "type": "Feature", "properties": { "name": "Samreboi Post Office", "name:en": null, "amenity": "post_office", "operator": "Ghana Post", "network": null, "addr:full": null, "addr:city": null, "source": null, "osm_id": 10741284933, "osm_type": "nodes" }, "geometry": { "type": "Point", "coordinates": [ -2.5618623, 5.6165277 ] } },
{ "type": "Feature", "properties": { "name": null, "name:en": null, "amenity": "atm", "operator": null, "network": null, "addr:full": null, "addr:city": null, "source": null, "osm_id": 12288309204, "osm_type": "nodes" }, "geometry": { "type": "Point", "coordinates": [ -0.1876259, 5.7150984 ] } },
{ "type": "Feature", "properties": { "name": "Samuel Anarfo GOD Kassous Enterprise", "name:en": null, "amenity": "mobile_money_agent", "operator": null, "network": "MTN Mobile Money;Vodafone Cash", "addr:full": null, "addr:city": null, "source": null, "osm_id": 7511493073, "osm_type": "nodes" }, "geometry": { "type": "Point", "coordinates": [ -1.8624062, 6.8197762 ] } },
{ "type": "Feature", "properties": { "name": "Sunshine City Forex Bureau", "name:en": null, "amenity": "bureau_de_change", "operator": null, "network": null, "addr:full": null, "addr:city": null, "source": null, "osm_id": 6135009304, "osm_type": "nodes" }, "geometry": { "type": "Point", "coordinates": [ -1.6317504, 6.7198143 ] } },
{ "type": "Feature", "properties": { "name": "Kasoa Odupongkpehe Post Office", "name:en": null, "amenity": "post_office", "operator": "Ghana Post", "network": null, "addr:full": null, "addr:city": null, "source": null, "osm_id": 10735222628, "osm_type": "nodes" }, "geometry": { "type": "Point", "coordinates": [ -0.4269782, 5.5378725 ] } },
{ "type": "Feature", "properties": { "name": "Bank of Africa", "name:en": null, "amenity": "bank", "operator": null, "network": null, "addr:full": null, "addr:city": null, "source": "local knowledge", "osm_id": 4288059428, "osm_type": "nodes" }, "geometry": { "type": "Point", "coordinates": [ -1.7601731, 4.8969099 ] } },
{ "type": "Feature", "properties": { "name": "CAL Bank", "name:en": null, "amenity": "bank", "operator": null, "network": null, "addr:full": null, "addr:city": null, "source": null, "osm_id": 4291931215, "osm_type": "nodes" }, "geometry": { "type": "Point", "coordinates": [ -1.759156, 4.8980922 ] } },
{ "type": "Feature", "properties": { "name": "Nkawie Post Office", "name:en": null, "amenity": "post_office", "operator": "Ghana Post", "network": null, "addr:full": null, "addr:city": null, "source": null, "osm_id": 10735193541, "osm_type": "nodes" }, "geometry": { "type": "Point", "coordinates": [ -1.8114513, 6.6641347 ] } },
{ "type": "Feature", "properties": { "name": "First National Bank", "name:en": null, "amenity": "atm", "operator": null, "network": null, "addr:full": null, "addr:city": null, "source": null, "osm_id": 5894676835, "osm_type": "nodes" }, "geometry": { "type": "Point", "coordinates": [ -0.2011401, 5.5550374 ] } },
{ "type": "Feature", "properties": { "name": "Ecobank", "name:en": null, "amenity": "bank", "operator": "Ecobank Ghana PLC", "network": null, "addr:full": null, "addr:city": "Accra", "source": null, "osm_id": 1364922555, "osm_type": "nodes" }, "geometry": { "type": "Point", "coordinates": [ -0.2023812, 5.5725622 ] } },
{ "type": "Feature", "properties": { "name": "Ecobank", "name:en": null, "amenity": "bank", "operator": "Ecobank Ghana PLC", "network": null, "addr:full": null, "addr:city": "Tamale", "source": null, "osm_id": 1880310700, "osm_type": "nodes" }, "geometry": { "type": "Point", "coordinates": [ -0.8429694, 9.4361748 ] } },
{ "type": "Feature", "properties": { "name": "Consolidated Bank Ghana", "name:en": null, "amenity": "bank", "operator": "Consolidated Bank Ghana Limited", "network": null, "addr:full": null, "addr:city": null, "source": null, "osm_id": 4714336326, "osm_type": "nodes" }, "geometry": { "type": "Point", "coordinates": [ -1.2855958, 5.1176325 ] } },
{ "type": "Feature", "properties": { "name": "Bank of Ghana", "name:en": null, "amenity": "bank", "operator": null, "network": null, "addr:full": null, "addr:city": null, "source": null, "osm_id": 531919711, "osm_type": "nodes" }, "geometry": { "type": "Point", "coordinates": [ 0.4772341, 7.1545175 ] } },
{ "type": "Feature", "properties": { "name": "Buipe Post Office", "name:en": null, "amenity": "post_office", "operator": "Ghana Post", "network": null, "addr:full": null, "addr:city": null, "source": null, "osm_id": 10729711588, "osm_type": "nodes" }, "geometry": { "type": "Point", "coordinates": [ -1.4743345, 8.795433 ] } },
{ "type": "Feature", "properties": { "name": "Ecobank", "name:en": null, "amenity": "bank", "operator": "Ecobank Ghana PLC", "network": null, "addr:full": null, "addr:city": null, "source": null, "osm_id": 1293965179, "osm_type": "nodes" }, "geometry": { "type": "Point", "coordinates": [ -0.9977206, 6.3415279 ] } },
{ "type": "Feature", "properties": { "name": "Ecobank", "name:en": null, "amenity": "bank", "operator": "Ecobank Ghana PLC", "network": null, "addr:full": null, "addr:city": "Accra", "source": null, "osm_id": 2148020811, "osm_type": "nodes" }, "geometry": { "type": "Point", "coordinates": [ -0.21512, 5.6357282 ] } },
{ "type": "Feature", "properties": { "name": "Ecobank", "name:en": null, "amenity": "bank", "operator": "Ecobank Ghana PLC", "network": null, "addr:full": null, "addr:city": "Accra", "source": null, "osm_id": 3154427941, "osm_type": "nodes" }, "geometry": { "type": "Point", "coordinates": [ -0.2488049, 5.6060931 ] } },
{ "type": "Feature", "properties": { "name": "Ecobank", "name:en": null, "amenity": "bank", "operator": "Ecobank Ghana PLC", "network": null, "addr:full": null, "addr:city": "Aflao", "source": null, "osm_id": 3188482430, "osm_type": "nodes" }, "geometry": { "type": "Point", "coordinates": [ 1.1900085, 6.1178297 ] } },
{ "type": "Feature", "properties": { "name": "Ecobank", "name:en": null, "amenity": "bank", "operator": "Ecobank Ghana PLC", "network": null, "addr:full": null, "addr:city": "Accra", "source": null, "osm_id": 3425613994, "osm_type": "nodes" }, "geometry": { "type": "Point", "coordinates": [ -0.1848924, 5.6425461 ] } },
{ "type": "Feature", "properties": { "name": "Ecobank", "name:en": null, "amenity": "bank", "operator": "Ecobank Ghana PLC", "network": null, "addr:full": null, "addr:city": "Accra", "source": null, "osm_id": 3655875949, "osm_type": "nodes" }, "geometry": { "type": "Point", "coordinates": [ -0.1758548, 5.6713882 ] } },
{ "type": "Feature", "properties": { "name": "Ecobank", "name:en": null, "amenity": "bank", "operator": "Ecobank Ghana PLC", "network": null, "addr:full": null, "addr:city": "Sekondi-Takoradi", "source": null, "osm_id": 3780319058, "osm_type": "nodes" }, "geometry": { "type": "Point", "coordinates": [ -1.7605738, 4.8961356 ] } },
{ "type": "Feature", "properties": { "name": "Ecobank", "name:en": null, "amenity": "bank", "operator": "Ecobank Ghana PLC", "network": null, "addr:full": null, "addr:city": "Accra", "source": null, "osm_id": 4286153291, "osm_type": "nodes" }, "geometry": { "type": "Point", "coordinates": [ -0.0315029, 5.6868197 ] } },
{ "type": "Feature", "properties": { "name": "Ecobank", "name:en": null, "amenity": "bank", "operator": "Ecobank Ghana PLC", "network": null, "addr:full": null, "addr:city": "Accra", "source": null, "osm_id": 5038666554, "osm_type": "nodes" }, "geometry": { "type": "Point", "coordinates": [ -0.2064335, 5.5912219 ] } },
{ "type": "Feature", "properties": { "name": "Ecobank", "name:en": null, "amenity": "bank", "operator": "Ecobank Ghana PLC", "network": null, "addr:full": null, "addr:city": "Sunyani", "source": null, "osm_id": 5308353647, "osm_type": "nodes" }, "geometry": { "type": "Point", "coordinates": [ -2.3275287, 7.3361463 ] } },
{ "type": "Feature", "properties": { "name": "Ecobank", "name:en": null, "amenity": "bank", "operator": "Ecobank Ghana PLC", "network": null, "addr:full": null, "addr:city": null, "source": null, "osm_id": 5588701516, "osm_type": "nodes" }, "geometry": { "type": "Point", "coordinates": [ -2.7788483, 5.2897858 ] } },
{ "type": "Feature", "properties": { "name": "Ecobank", "name:en": null, "amenity": "bank", "operator": "Ecobank Ghana PLC", "network": null, "addr:full": null, "addr:city": "Accra", "source": null, "osm_id": 5705923121, "osm_type": "nodes" }, "geometry": { "type": "Point", "coordinates": [ -0.1549344, 5.6264369 ] } },
{ "type": "Feature", "properties": { "name": "Ecobank", "name:en": null, "amenity": "bank", "operator": "Ecobank Ghana PLC", "network": null, "addr:full": null, "addr:city": "Accra", "source": "Open Cities Accra - Field Survey", "osm_id": 5824861235, "osm_type": "nodes" }, "geometry": { "type": "Point", "coordinates": [ -0.2353263, 5.6105937 ] } },
{ "type": "Feature", "properties": { "name": "Ecobank", "name:en": null, "amenity": "bank", "operator": "Ecobank Ghana PLC", "network": null, "addr:full": null, "addr:city": "Accra", "source": null, "osm_id": 6163777549, "osm_type": "nodes" }, "geometry": { "type": "Point", "coordinates": [ -0.2700955, 5.5902191 ] } },
{ "type": "Feature", "properties": { "name": "Ecobank", "name:en": null, "amenity": "bank", "operator": "Ecobank Ghana PLC", "network": null, "addr:full": null, "addr:city": "Accra", "source": null, "osm_id": 6173174676, "osm_type": "nodes" }, "geometry": { "type": "Point", "coordinates": [ -0.2115146, 5.5554919 ] } },
{ "type": "Feature", "properties": { "name": "Ecobank", "name:en": null, "amenity": "bank", "operator": "Ecobank Ghana PLC", "network": null, "addr:full": null, "addr:city": "Accra", "source": null, "osm_id": 6305749762, "osm_type": "nodes" }, "geometry": { "type": "Point", "coordinates": [ -0.0899999, 5.6286526 ] } },
{ "type": "Feature", "properties": { "name": "Ecobank", "name:en": null, "amenity": "bank", "operator": "Ecobank Ghana PLC", "network": null, "addr:full": null, "addr:city": "Kumasi", "source": null, "osm_id": 6533671557, "osm_type": "nodes" }, "geometry": { "type": "Point", "coordinates": [ -1.6321214, 6.7258155 ] } },
{ "type": "Feature", "properties": { "name": "Ecobank", "name:en": null, "amenity": "bank", "operator": "Ecobank Ghana PLC", "network": null, "addr:full": null, "addr:city": null, "source": null, "osm_id": 7742054588, "osm_type": "nodes" }, "geometry": { "type": "Point", "coordinates": [ -2.3456837, 4.9367862 ] } },
{ "type": "Feature", "properties": { "name": "Ecobank", "name:en": null, "amenity": "bank", "operator": "Ecobank Ghana PLC", "network": null, "addr:full": null, "addr:city": "Accra", "source": null, "osm_id": 7777502322, "osm_type": "nodes" }, "geometry": { "type": "Point", "coordinates": [ -0.3315605, 5.5508494 ] } },
{ "type": "Feature", "properties": { "name": "Ecobank", "name:en": null, "amenity": "bank", "operator": "Ecobank Ghana PLC", "network": null, "addr:full": null, "addr:city": "Kumasi", "source": null, "osm_id": 11185831595, "osm_type": "nodes" }, "geometry": { "type": "Point", "coordinates": [ -1.6221973, 6.6948746 ] } },
{ "type": "Feature", "properties": { "name": "Ecobank", "name:en": null, "amenity": "bank", "operator": "Ecobank Ghana PLC", "network": null, "addr:full": null, "addr:city": "Accra", "source": null, "osm_id": 11193401648, "osm_type": "nodes" }, "geometry": { "type": "Point", "coordinates": [ -0.1566558, 5.587538 ] } },
{ "type": "Feature", "properties": { "name": "Ecobank", "name:en": null, "amenity": "bank", "operator": "Ecobank Ghana PLC", "network": null, "addr:full": null, "addr:city": null, "source": null, "osm_id": 1296762867, "osm_type": "nodes" }, "geometry": { "type": "Point", "coordinates": [ -1.9922019, 5.3048883 ] } },
{ "type": "Feature", "properties": { "name": "Ecobank", "name:en": null, "amenity": "bank", "operator": "Ecobank Ghana PLC", "network": null, "addr:full": null, "addr:city": "Accra", "source": null, "osm_id": 2068210674, "osm_type": "nodes" }, "geometry": { "type": "Point", "coordinates": [ -0.1750258, 5.6412311 ] } },
{ "type": "Feature", "properties": { "name": "Ecobank", "name:en": null, "amenity": "bank", "operator": "Ecobank Ghana PLC", "network": null, "addr:full": null, "addr:city": "Accra", "source": null, "osm_id": 3073607081, "osm_type": "nodes" }, "geometry": { "type": "Point", "coordinates": [ -0.2556587, 5.5766395 ] } },
{ "type": "Feature", "properties": { "name": "Ecobank", "name:en": null, "amenity": "bank", "operator": "Ecobank Ghana PLC", "network": null, "addr:full": null, "addr:city": "Accra", "source": null, "osm_id": 3229726701, "osm_type": "nodes" }, "geometry": { "type": "Point", "coordinates": [ -0.1692465, 5.5682737 ] } },
{ "type": "Feature", "properties": { "name": "Ecobank", "name:en": null, "amenity": "bank", "operator": "Ecobank Ghana PLC", "network": null, "addr:full": null, "addr:city": "Accra", "source": null, "osm_id": 3678130673, "osm_type": "nodes" }, "geometry": { "type": "Point", "coordinates": [ -0.0723379, 5.6224521 ] } },
{ "type": "Feature", "properties": { "name": "Ecobank", "name:en": null, "amenity": "bank", "operator": "Ecobank Ghana PLC", "network": null, "addr:full": null, "addr:city": "Accra", "source": null, "osm_id": 3961469679, "osm_type": "nodes" }, "geometry": { "type": "Point", "coordinates": [ -0.2011605, 5.6029196 ] } },
{ "type": "Feature", "properties": { "name": "Ecobank", "name:en": null, "amenity": "bank", "operator": "Ecobank Ghana PLC", "network": null, "addr:full": null, "addr:city": "Accra", "source": null, "osm_id": 3974505653, "osm_type": "nodes" }, "geometry": { "type": "Point", "coordinates": [ -0.2404499, 5.634831 ] } },
{ "type": "Feature", "properties": { "name": "Ecobank", "name:en": null, "amenity": "bank", "operator": "Ecobank Ghana PLC", "network": null, "addr:full": null, "addr:city": "Accra", "source": null, "osm_id": 4029690149, "osm_type": "nodes" }, "geometry": { "type": "Point", "coordinates": [ -0.1524504, 5.6412905 ] } },
{ "type": "Feature", "properties": { "name": "Ecobank", "name:en": null, "amenity": "bank", "operator": "Ecobank Ghana PLC", "network": null, "addr:full": null, "addr:city": "Kumasi", "source": null, "osm_id": 4881949994, "osm_type": "nodes" }, "geometry": { "type": "Point", "coordinates": [ -1.6184912, 6.7002297 ] } },
{ "type": "Feature", "properties": { "name": "Ecobank", "name:en": null, "amenity": "bank", "operator": "Ecobank Ghana PLC", "network": null, "addr:full": null, "addr:city": "Accra", "source": null, "osm_id": 5108895264, "osm_type": "nodes" }, "geometry": { "type": "Point", "coordinates": [ -0.1992456, 5.6672089 ] } },
{ "type": "Feature", "properties": { "name": "Ecobank", "name:en": null, "amenity": "bank", "operator": "Ecobank Ghana PLC", "network": null, "addr:full": null, "addr:city": "Tema", "source": null, "osm_id": 5322430183, "osm_type": "nodes" }, "geometry": { "type": "Point", "coordinates": [ -0.0170145, 5.6849161 ] } },
{ "type": "Feature", "properties": { "name": "Ecobank", "name:en": null, "amenity": "bank", "operator": "Ecobank Ghana PLC", "network": null, "addr:full": null, "addr:city": "Accra", "source": null, "osm_id": 5422212797, "osm_type": "nodes" }, "geometry": { "type": "Point", "coordinates": [ -0.1738545, 5.6212789 ] } },
{ "type": "Feature", "properties": { "name": "Ecobank", "name:en": null, "amenity": "bank", "operator": "Ecobank Ghana PLC", "network": null, "addr:full": null, "addr:city": "Accra", "source": null, "osm_id": 5629437200, "osm_type": "nodes" }, "geometry": { "type": "Point", "coordinates": [ -0.1818659, 5.5628479 ] } },
{ "type": "Feature", "properties": { "name": "Ecobank", "name:en": null, "amenity": "bank", "operator": "Ecobank Ghana PLC", "network": null, "addr:full": null, "addr:city": "Accra", "source": null, "osm_id": 5778769649, "osm_type": "nodes" }, "geometry": { "type": "Point", "coordinates": [ -0.2235946, 5.5980577 ] } },
{ "type": "Feature", "properties": { "name": "Ecobank", "name:en": null, "amenity": "bank", "operator": "Ecobank Ghana PLC", "network": null, "addr:full": null, "addr:city": "Kumasi", "source": null, "osm_id": 6052655950, "osm_type": "nodes" }, "geometry": { "type": "Point", "coordinates": [ -1.6236338, 6.6882221 ] } },
{ "type": "Feature", "properties": { "name": "Ecobank", "name:en": null, "amenity": "bank", "operator": "Ecobank Ghana PLC", "network": null, "addr:full": null, "addr:city": "Kumasi", "source": null, "osm_id": 6091147038, "osm_type": "nodes" }, "geometry": { "type": "Point", "coordinates": [ -1.6392407, 6.7068437 ] } },
{ "type": "Feature", "properties": { "name": "Ecobank", "name:en": null, "amenity": "bank", "operator": "Ecobank Ghana PLC", "network": null, "addr:full": null, "addr:city": "Accra", "source": null, "osm_id": 6305225183, "osm_type": "nodes" }, "geometry": { "type": "Point", "coordinates": [ -0.1648034, 5.6774618 ] } },
{ "type": "Feature", "properties": { "name": "Ecobank", "name:en": null, "amenity": "bank", "operator": "Ecobank Ghana PLC", "network": null, "addr:full": null, "addr:city": null, "source": null, "osm_id": 6563515941, "osm_type": "nodes" }, "geometry": { "type": "Point", "coordinates": [ -1.2467275, 5.1128136 ] } },
{ "type": "Feature", "properties": { "name": "Ecobank", "name:en": null, "amenity": "bank", "operator": "Ecobank Ghana PLC", "network": null, "addr:full": null, "addr:city": "Accra", "source": null, "osm_id": 7164707743, "osm_type": "nodes" }, "geometry": { "type": "Point", "coordinates": [ -0.1992156, 5.5576097 ] } },
{ "type": "Feature", "properties": { "name": "Ecobank", "name:en": null, "amenity": "bank", "operator": "Ecobank Ghana PLC", "network": null, "addr:full": null, "addr:city": "Accra", "source": null, "osm_id": 8969185105, "osm_type": "nodes" }, "geometry": { "type": "Point", "coordinates": [ -0.2245265, 5.5549628 ] } },
{ "type": "Feature", "properties": { "name": "Ecobank", "name:en": null, "amenity": "bank", "operator": "Ecobank Ghana PLC", "network": null, "addr:full": null, "addr:city": null, "source": null, "osm_id": 10284772619, "osm_type": "nodes" }, "geometry": { "type": "Point", "coordinates": [ -1.548965, 5.611843 ] } },
{ "type": "Feature", "properties": { "name": "Ecobank", "name:en": null, "amenity": "bank", "operator": "Ecobank Ghana PLC", "network": null, "addr:full": null, "addr:city": null, "source": null, "osm_id": 10584106814, "osm_type": "nodes" }, "geometry": { "type": "Point", "coordinates": [ -1.5472551, 5.545726 ] } },
{ "type": "Feature", "properties": { "name": "Ecobank", "name:en": null, "amenity": "bank", "operator": "Ecobank Ghana PLC", "network": null, "addr:full": null, "addr:city": "Kumasi", "source": null, "osm_id": 11185774772, "osm_type": "nodes" }, "geometry": { "type": "Point", "coordinates": [ -1.6038316, 6.6874302 ] } },
{ "type": "Feature", "properties": { "name": "Ecobank", "name:en": null, "amenity": "bank", "operator": "Ecobank Ghana PLC", "network": null, "addr:full": null, "addr:city": "Tema", "source": null, "osm_id": 11185824065, "osm_type": "nodes" }, "geometry": { "type": "Point", "coordinates": [ 0.0031221, 5.6346282 ] } },
{ "type": "Feature", "properties": { "name": "Ecobank", "name:en": null, "amenity": "bank", "operator": "Ecobank Ghana PLC", "network": null, "addr:full": null, "addr:city": "Kumasi", "source": null, "osm_id": 11186994250, "osm_type": "nodes" }, "geometry": { "type": "Point", "coordinates": [ -1.6821568, 6.6962678 ] } },
{ "type": "Feature", "properties": { "name": "Ecobank", "name:en": null, "amenity": "bank", "operator": "Ecobank Ghana PLC", "network": null, "addr:full": null, "addr:city": "Accra", "source": null, "osm_id": 11187005491, "osm_type": "nodes" }, "geometry": { "type": "Point", "coordinates": [ -0.2146632, 5.5486113 ] } },
{ "type": "Feature", "properties": { "name": "Ecobank", "name:en": null, "amenity": "bank", "operator": "Ecobank Ghana PLC", "network": null, "addr:full": null, "addr:city": "Kumasi", "source": null, "osm_id": 11191433986, "osm_type": "nodes" }, "geometry": { "type": "Point", "coordinates": [ -1.6317017, 6.6992994 ] } },
{ "type": "Feature", "properties": { "name": "Ecobank", "name:en": null, "amenity": "bank", "operator": "Ecobank Ghana PLC", "network": null, "addr:full": null, "addr:city": "Kumasi", "source": null, "osm_id": 11193457621, "osm_type": "nodes" }, "geometry": { "type": "Point", "coordinates": [ -1.6164675, 6.7278122 ] } },
{ "type": "Feature", "properties": { "name": "Ecobank", "name:en": null, "amenity": "bank", "operator": "Ecobank Ghana PLC", "network": null, "addr:full": null, "addr:city": "Accra", "source": null, "osm_id": 11196813130, "osm_type": "nodes" }, "geometry": { "type": "Point", "coordinates": [ -0.2090272, 5.5499588 ] } },
{ "type": "Feature", "properties": { "name": "Ecobank", "name:en": null, "amenity": "bank", "operator": "Ecobank Ghana PLC", "network": null, "addr:full": null, "addr:city": "Accra", "source": null, "osm_id": 11203187849, "osm_type": "nodes" }, "geometry": { "type": "Point", "coordinates": [ -0.178147, 5.6001097 ] } },
{ "type": "Feature", "properties": { "name": "FirstBank Ghana", "name:en": null, "amenity": "bank", "operator": "FBNBank Ghana Limited", "network": null, "addr:full": null, "addr:city": "Takoradi", "source": null, "osm_id": 3780227883, "osm_type": "nodes" }, "geometry": { "type": "Point", "coordinates": [ -1.7567286, 4.8956024 ] } },
{ "type": "Feature", "properties": { "name": "FirstBank Ghana", "name:en": null, "amenity": "bank", "operator": "FBNBank Ghana Limited", "network": null, "addr:full": null, "addr:city": null, "source": null, "osm_id": 4881656372, "osm_type": "nodes" }, "geometry": { "type": "Point", "coordinates": [ -1.6337268, 6.7312744 ] } },
{ "type": "Feature", "properties": { "name": "FirstBank Ghana", "name:en": null, "amenity": "bank", "operator": "FBNBank Ghana Limited", "network": null, "addr:full": null, "addr:city": null, "source": null, "osm_id": 4925292333, "osm_type": "nodes" }, "geometry": { "type": "Point", "coordinates": [ -1.6204398, 6.6928201 ] } },
{ "type": "Feature", "properties": { "name": "FirstBank Ghana", "name:en": null, "amenity": "bank", "operator": "FBNBank Ghana Limited", "network": null, "addr:full": null, "addr:city": null, "source": null, "osm_id": 5022632312, "osm_type": "nodes" }, "geometry": { "type": "Point", "coordinates": [ -0.2062145, 5.5462961 ] } },
{ "type": "Feature", "properties": { "name": "FirstBank Ghana", "name:en": null, "amenity": "bank", "operator": "FBNBank Ghana Limited", "network": null, "addr:full": null, "addr:city": null, "source": null, "osm_id": 5022632313, "osm_type": "nodes" }, "geometry": { "type": "Point", "coordinates": [ -0.1802682, 5.5956111 ] } },
{ "type": "Feature", "properties": { "name": "FirstBank Ghana", "name:en": null, "amenity": "bank", "operator": "FBNBank Ghana Limited", "network": null, "addr:full": null, "addr:city": "Accra", "source": null, "osm_id": 5794893518, "osm_type": "nodes" }, "geometry": { "type": "Point", "coordinates": [ -0.2317886, 5.6214422 ] } },
{ "type": "Feature", "properties": { "name": "FirstBank Ghana", "name:en": null, "amenity": "bank", "operator": "FBNBank Ghana Limited", "network": null, "addr:full": null, "addr:city": null, "source": null, "osm_id": 6486455363, "osm_type": "nodes" }, "geometry": { "type": "Point", "coordinates": [ -0.231771, 5.5347806 ] } },
{ "type": "Feature", "properties": { "name": "FirstBank Ghana", "name:en": null, "amenity": "bank", "operator": "FBNBank Ghana Limited", "network": null, "addr:full": null, "addr:city": null, "source": "local knowledge", "osm_id": 10211707925, "osm_type": "nodes" }, "geometry": { "type": "Point", "coordinates": [ -0.2523811, 5.5745436 ] } },
{ "type": "Feature", "properties": { "name": null, "name:en": null, "amenity": "atm", "operator": "Fidelity Bank", "network": null, "addr:full": null, "addr:city": null, "source": null, "osm_id": 5778972255, "osm_type": "nodes" }, "geometry": { "type": "Point", "coordinates": [ -0.1890253, 5.6508028 ] } },
{ "type": "Feature", "properties": { "name": null, "name:en": null, "amenity": "atm", "operator": "Prudential Bank", "network": null, "addr:full": null, "addr:city": null, "source": null, "osm_id": 5779017654, "osm_type": "nodes" }, "geometry": { "type": "Point", "coordinates": [ -0.1889738, 5.6508039 ] } },
{ "type": "Feature", "properties": { "name": "Jins Savings & Loans", "name:en": null, "amenity": "bank", "operator": null, "network": null, "addr:full": null, "addr:city": null, "source": null, "osm_id": 8284325354, "osm_type": "nodes" }, "geometry": { "type": "Point", "coordinates": [ -0.2101737, 5.6501293 ] } },
{ "type": "Feature", "properties": { "name": null, "name:en": null, "amenity": "atm", "operator": null, "network": null, "addr:full": null, "addr:city": null, "source": null, "osm_id": 2634581694, "osm_type": "nodes" }, "geometry": { "type": "Point", "coordinates": [ -1.9893813, 5.3216705 ] } },
{ "type": "Feature", "properties": { "name": "Ecobank", "name:en": null, "amenity": "bank", "operator": "Ecobank Ghana PLC", "network": null, "addr:full": null, "addr:city": "Tema", "source": null, "osm_id": 11193410873, "osm_type": "nodes" }, "geometry": { "type": "Point", "coordinates": [ -0.0040716, 5.6368103 ] } },
{ "type": "Feature", "properties": { "name": "Ecobank", "name:en": null, "amenity": "bank", "operator": "Ecobank Ghana PLC", "network": null, "addr:full": null, "addr:city": "Kumasi", "source": null, "osm_id": 11193497456, "osm_type": "nodes" }, "geometry": { "type": "Point", "coordinates": [ -1.5755738, 6.6830054 ] } },
{ "type": "Feature", "properties": { "name": "Mobile Money", "name:en": null, "amenity": "money_transfer", "operator": null, "network": null, "addr:full": null, "addr:city": null, "source": null, "osm_id": 12282954328, "osm_type": "nodes" }, "geometry": { "type": "Point", "coordinates": [ -0.3443902, 5.6808224 ] } },
{ "type": "Feature", "properties": { "name": "Mobile Money", "name:en": null, "amenity": "money_transfer", "operator": null, "network": null, "addr:full": null, "addr:city": null, "source": null, "osm_id": 12282954330, "osm_type": "nodes" }, "geometry": { "type": "Point", "coordinates": [ -0.3448409, 5.6809417 ] } },
{ "type": "Feature", "properties": { "name": "FirstBank Ghana", "name:en": null, "amenity": "bank", "operator": "FBNBank Ghana Limited", "network": null, "addr:full": null, "addr:city": null, "source": null, "osm_id": 5022636582, "osm_type": "nodes" }, "geometry": { "type": "Point", "coordinates": [ -0.2093768, 5.544368 ] } },
{ "type": "Feature", "properties": { "name": "FirstBank Ghana", "name:en": null, "amenity": "bank", "operator": "FBNBank Ghana Limited", "network": null, "addr:full": null, "addr:city": null, "source": null, "osm_id": 5084500030, "osm_type": "nodes" }, "geometry": { "type": "Point", "coordinates": [ -0.1392506, 5.632853 ] } },
{ "type": "Feature", "properties": { "name": "FirstBank Ghana", "name:en": null, "amenity": "bank", "operator": "FBNBank Ghana Limited", "network": null, "addr:full": null, "addr:city": null, "source": null, "osm_id": 6564386233, "osm_type": "nodes" }, "geometry": { "type": "Point", "coordinates": [ -1.6206102, 6.692696 ] } },
{ "type": "Feature", "properties": { "name": "FirstBank Ghana", "name:en": null, "amenity": "bank", "operator": "FBNBank Ghana Limited", "network": null, "addr:full": null, "addr:city": null, "source": null, "osm_id": 7156350602, "osm_type": "nodes" }, "geometry": { "type": "Point", "coordinates": [ -0.1786231, 5.6669892 ] } },
{ "type": "Feature", "properties": { "name": null, "name:en": null, "amenity": "atm", "operator": null, "network": null, "addr:full": null, "addr:city": null, "source": null, "osm_id": 2634581697, "osm_type": "nodes" }, "geometry": { "type": "Point", "coordinates": [ -1.989417, 5.3216852 ] } },
{ "type": "Feature", "properties": { "name": "Ecobank", "name:en": null, "amenity": "bank", "operator": "Ecobank Ghana PLC", "network": null, "addr:full": null, "addr:city": "Tema", "source": null, "osm_id": 2018584240, "osm_type": "nodes" }, "geometry": { "type": "Point", "coordinates": [ -0.0179687, 5.6642509 ] } },
{ "type": "Feature", "properties": { "name": "CalBank ATM", "name:en": null, "amenity": "atm", "operator": "CalBank", "network": null, "addr:full": null, "addr:city": null, "source": null, "osm_id": 5017200541, "osm_type": "nodes" }, "geometry": { "type": "Point", "coordinates": [ -0.1692712, 5.5678403 ] } },
{ "type": "Feature", "properties": { "name": "CalBank ATM", "name:en": null, "amenity": "atm", "operator": "CalBank", "network": null, "addr:full": null, "addr:city": null, "source": null, "osm_id": 7158356786, "osm_type": "nodes" }, "geometry": { "type": "Point", "coordinates": [ 0.0189667, 5.7222706 ] } },
{ "type": "Feature", "properties": { "name": "Consolidated Bank Ghana", "name:en": null, "amenity": "bank", "operator": "Consolidated Bank Ghana Limited", "network": null, "addr:full": null, "addr:city": null, "source": null, "osm_id": 5751223231, "osm_type": "nodes" }, "geometry": { "type": "Point", "coordinates": [ -0.1787102, 5.667507 ] } },
{ "type": "Feature", "properties": { "name": "CalBank", "name:en": null, "amenity": "bank", "operator": "CalBank PLC", "network": null, "addr:full": null, "addr:city": "Techiman", "source": null, "osm_id": 10892737027, "osm_type": "nodes" }, "geometry": { "type": "Point", "coordinates": [ -1.9357709, 7.5797847 ] } },
{ "type": "Feature", "properties": { "name": "CalBank", "name:en": null, "amenity": "bank", "operator": "CalBank PLC", "network": null, "addr:full": null, "addr:city": "Koforidua", "source": null, "osm_id": 10892785856, "osm_type": "nodes" }, "geometry": { "type": "Point", "coordinates": [ -0.2555262, 6.0917278 ] } },
{ "type": "Feature", "properties": { "name": "CalBank", "name:en": null, "amenity": "bank", "operator": "CalBank PLC", "network": null, "addr:full": null, "addr:city": "Bolgatanga", "source": null, "osm_id": 10914046638, "osm_type": "nodes" }, "geometry": { "type": "Point", "coordinates": [ -0.8525667, 10.786433 ] } },
{ "type": "Feature", "properties": { "name": "Consolidated Bank Ghana", "name:en": null, "amenity": "bank", "operator": "Consolidated Bank Ghana Limited", "network": null, "addr:full": null, "addr:city": null, "source": null, "osm_id": 3123797174, "osm_type": "nodes" }, "geometry": { "type": "Point", "coordinates": [ -0.2348463, 5.5986451 ] } },
{ "type": "Feature", "properties": { "name": "Consolidated Bank Ghana", "name:en": null, "amenity": "bank", "operator": "Consolidated Bank Ghana Limited", "network": null, "addr:full": null, "addr:city": null, "source": null, "osm_id": 3137499106, "osm_type": "nodes" }, "geometry": { "type": "Point", "coordinates": [ -0.230246, 5.5906055 ] } },
{ "type": "Feature", "properties": { "name": "Consolidated Bank Ghana", "name:en": null, "amenity": "bank", "operator": "Consolidated Bank Ghana Limited", "network": null, "addr:full": null, "addr:city": null, "source": null, "osm_id": 3137505112, "osm_type": "nodes" }, "geometry": { "type": "Point", "coordinates": [ -0.1447447, 5.6305232 ] } },
{ "type": "Feature", "properties": { "name": "Consolidated Bank Ghana", "name:en": null, "amenity": "bank", "operator": "Consolidated Bank Ghana Limited", "network": null, "addr:full": null, "addr:city": null, "source": "local knowledge", "osm_id": 4348179291, "osm_type": "nodes" }, "geometry": { "type": "Point", "coordinates": [ -0.2050125, 5.5717267 ] } },
{ "type": "Feature", "properties": { "name": "CalBank", "name:en": null, "amenity": "bank", "operator": "CalBank PLC", "network": null, "addr:full": null, "addr:city": "Accra", "source": null, "osm_id": 4033070563, "osm_type": "nodes" }, "geometry": { "type": "Point", "coordinates": [ -0.1765568, 5.6037364 ] } },
{ "type": "Feature", "properties": { "name": "CalBank", "name:en": null, "amenity": "bank", "operator": "CalBank PLC", "network": null, "addr:full": null, "addr:city": "Cape Coast", "source": null, "osm_id": 9206267925, "osm_type": "nodes" }, "geometry": { "type": "Point", "coordinates": [ -1.2785272, 5.1139006 ] } },
{ "type": "Feature", "properties": { "name": "CalBank ATM", "name:en": null, "amenity": "atm", "operator": "CalBank", "network": null, "addr:full": null, "addr:city": null, "source": null, "osm_id": 7742987085, "osm_type": "nodes" }, "geometry": { "type": "Point", "coordinates": [ -2.3522345, 4.9388574 ] } },
{ "type": "Feature", "properties": { "name": "CalBank ATM", "name:en": null, "amenity": "atm", "operator": "CalBank", "network": null, "addr:full": null, "addr:city": "Takoradi", "source": null, "osm_id": 9645441250, "osm_type": "nodes" }, "geometry": { "type": "Point", "coordinates": [ -1.7790319, 4.9320614 ] } },
{ "type": "Feature", "properties": { "name": "CalBank ATM", "name:en": null, "amenity": "atm", "operator": "CalBank", "network": null, "addr:full": null, "addr:city": "Takoradi", "source": null, "osm_id": 9645480717, "osm_type": "nodes" }, "geometry": { "type": "Point", "coordinates": [ -1.7934017, 4.9146799 ] } },
{ "type": "Feature", "properties": { "name": "CalBank ATM", "name:en": null, "amenity": "atm", "operator": "CalBank", "network": null, "addr:full": null, "addr:city": null, "source": null, "osm_id": 9863763489, "osm_type": "nodes" }, "geometry": { "type": "Point", "coordinates": [ -0.2148393, 5.5677335 ] } },
{ "type": "Feature", "properties": { "name": "CalBank ATM", "name:en": null, "amenity": "atm", "operator": "CalBank", "network": null, "addr:full": null, "addr:city": null, "source": null, "osm_id": 10892608660, "osm_type": "nodes" }, "geometry": { "type": "Point", "coordinates": [ -1.6146831, 6.686037 ] } },
{ "type": "Feature", "properties": { "name": "CalBank ATM", "name:en": null, "amenity": "atm", "operator": "CalBank", "network": null, "addr:full": null, "addr:city": null, "source": null, "osm_id": 11290791832, "osm_type": "nodes" }, "geometry": { "type": "Point", "coordinates": [ -1.5634657, 6.6755721 ] } },
{ "type": "Feature", "properties": { "name": "Consolidated Bank Ghana", "name:en": null, "amenity": "bank", "operator": "Consolidated Bank Ghana Limited", "network": null, "addr:full": null, "addr:city": null, "source": null, "osm_id": 4522495793, "osm_type": "nodes" }, "geometry": { "type": "Point", "coordinates": [ -0.1856608, 5.6430552 ] } },
{ "type": "Feature", "properties": { "name": "Consolidated Bank Ghana", "name:en": null, "amenity": "bank", "operator": "Consolidated Bank Ghana Limited", "network": null, "addr:full": null, "addr:city": null, "source": null, "osm_id": 4534031484, "osm_type": "nodes" }, "geometry": { "type": "Point", "coordinates": [ 0.0335089, 5.7381731 ] } },
{ "type": "Feature", "properties": { "name": "Consolidated Bank Ghana", "name:en": null, "amenity": "bank", "operator": "Consolidated Bank Ghana Limited", "network": null, "addr:full": null, "addr:city": null, "source": null, "osm_id": 4565203452, "osm_type": "nodes" }, "geometry": { "type": "Point", "coordinates": [ -1.9939448, 5.3068951 ] } },
{ "type": "Feature", "properties": { "name": "Consolidated Bank Ghana", "name:en": null, "amenity": "bank", "operator": "Consolidated Bank Ghana Limited", "network": null, "addr:full": null, "addr:city": null, "source": null, "osm_id": 4910910873, "osm_type": "nodes" }, "geometry": { "type": "Point", "coordinates": [ -1.9368469, 7.5845885 ] } },
{ "type": "Feature", "properties": { "name": "Consolidated Bank Ghana", "name:en": null, "amenity": "bank", "operator": "Consolidated Bank Ghana Limited", "network": null, "addr:full": null, "addr:city": null, "source": null, "osm_id": 5016168764, "osm_type": "nodes" }, "geometry": { "type": "Point", "coordinates": [ -0.2377645, 5.5633359 ] } },
{ "type": "Feature", "properties": { "name": "Consolidated Bank Ghana", "name:en": null, "amenity": "bank", "operator": "Consolidated Bank Ghana Limited", "network": null, "addr:full": null, "addr:city": null, "source": null, "osm_id": 5022636583, "osm_type": "nodes" }, "geometry": { "type": "Point", "coordinates": [ -0.2073443, 5.5427269 ] } },
{ "type": "Feature", "properties": { "name": "Consolidated Bank Ghana", "name:en": null, "amenity": "bank", "operator": "Consolidated Bank Ghana Limited", "network": null, "addr:full": null, "addr:city": null, "source": null, "osm_id": 5066524027, "osm_type": "nodes" }, "geometry": { "type": "Point", "coordinates": [ -0.2554541, 5.576521 ] } },
{ "type": "Feature", "properties": { "name": "Consolidated Bank Ghana", "name:en": null, "amenity": "bank", "operator": "Consolidated Bank Ghana Limited", "network": null, "addr:full": null, "addr:city": "Tema", "source": null, "osm_id": 5088054458, "osm_type": "nodes" }, "geometry": { "type": "Point", "coordinates": [ 0.0188792, 5.7222105 ] } },
{ "type": "Feature", "properties": { "name": "Consolidated Bank Ghana", "name:en": null, "amenity": "bank", "operator": "Consolidated Bank Ghana Limited", "network": null, "addr:full": null, "addr:city": null, "source": null, "osm_id": 5150562246, "osm_type": "nodes" }, "geometry": { "type": "Point", "coordinates": [ -0.2111411, 5.5550479 ] } },
{ "type": "Feature", "properties": { "name": "Consolidated Bank Ghana", "name:en": null, "amenity": "bank", "operator": "Consolidated Bank Ghana Limited", "network": null, "addr:full": null, "addr:city": null, "source": null, "osm_id": 5494159520, "osm_type": "nodes" }, "geometry": { "type": "Point", "coordinates": [ -0.2086329, 5.565361 ] } },
{ "type": "Feature", "properties": { "name": "Consolidated Bank Ghana", "name:en": null, "amenity": "bank", "operator": "Consolidated Bank Ghana Limited", "network": null, "addr:full": null, "addr:city": null, "source": null, "osm_id": 5535387247, "osm_type": "nodes" }, "geometry": { "type": "Point", "coordinates": [ -0.7002641, 5.5314935 ] } },
{ "type": "Feature", "properties": { "name": "Consolidated Bank Ghana", "name:en": null, "amenity": "bank", "operator": "Consolidated Bank Ghana Limited", "network": null, "addr:full": null, "addr:city": null, "source": null, "osm_id": 5548654922, "osm_type": "nodes" }, "geometry": { "type": "Point", "coordinates": [ -0.1498057, 5.5722138 ] } },
{ "type": "Feature", "properties": { "name": "Consolidated Bank Ghana", "name:en": null, "amenity": "bank", "operator": "Consolidated Bank Ghana Limited", "network": null, "addr:full": null, "addr:city": null, "source": null, "osm_id": 5713205699, "osm_type": "nodes" }, "geometry": { "type": "Point", "coordinates": [ -0.1765219, 5.6318756 ] } },
{ "type": "Feature", "properties": { "name": "Consolidated Bank Ghana", "name:en": null, "amenity": "bank", "operator": "Consolidated Bank Ghana Limited", "network": null, "addr:full": null, "addr:city": null, "source": null, "osm_id": 5717931866, "osm_type": "nodes" }, "geometry": { "type": "Point", "coordinates": [ -0.2319551, 5.6105691 ] } },
{ "type": "Feature", "properties": { "name": "Consolidated Bank Ghana", "name:en": null, "amenity": "bank", "operator": "Consolidated Bank Ghana Limited", "network": null, "addr:full": null, "addr:city": null, "source": null, "osm_id": 5745405253, "osm_type": "nodes" }, "geometry": { "type": "Point", "coordinates": [ -0.232306, 5.6105932 ] } },
{ "type": "Feature", "properties": { "name": "Consolidated Bank Ghana", "name:en": null, "amenity": "bank", "operator": "Consolidated Bank Ghana Limited", "network": null, "addr:full": null, "addr:city": null, "source": null, "osm_id": 5745406781, "osm_type": "nodes" }, "geometry": { "type": "Point", "coordinates": [ -0.2365945, 5.609255 ] } },
{ "type": "Feature", "properties": { "name": "Consolidated Bank Ghana", "name:en": null, "amenity": "bank", "operator": "Consolidated Bank Ghana Limited", "network": null, "addr:full": null, "addr:city": null, "source": null, "osm_id": 6475844982, "osm_type": "nodes" }, "geometry": { "type": "Point", "coordinates": [ -0.8448668, 9.4041019 ] } },
{ "type": "Feature", "properties": { "name": "Consolidated Bank Ghana", "name:en": null, "amenity": "bank", "operator": "Consolidated Bank Ghana Limited", "network": null, "addr:full": null, "addr:city": null, "source": null, "osm_id": 6495092890, "osm_type": "nodes" }, "geometry": { "type": "Point", "coordinates": [ -1.6255752, 6.7041849 ] } },
{ "type": "Feature", "properties": { "name": "Consolidated Bank Ghana", "name:en": null, "amenity": "bank", "operator": "Consolidated Bank Ghana Limited", "network": null, "addr:full": null, "addr:city": null, "source": null, "osm_id": 6532533638, "osm_type": "nodes" }, "geometry": { "type": "Point", "coordinates": [ -1.6311937, 6.7278076 ] } },
{ "type": "Feature", "properties": { "name": "Consolidated Bank Ghana", "name:en": null, "amenity": "bank", "operator": "Consolidated Bank Ghana Limited", "network": null, "addr:full": null, "addr:city": null, "source": null, "osm_id": 6533662267, "osm_type": "nodes" }, "geometry": { "type": "Point", "coordinates": [ -1.6317853, 6.7263375 ] } },
{ "type": "Feature", "properties": { "name": "Consolidated Bank Ghana", "name:en": null, "amenity": "bank", "operator": "Consolidated Bank Ghana Limited", "network": null, "addr:full": null, "addr:city": null, "source": null, "osm_id": 6590385650, "osm_type": "nodes" }, "geometry": { "type": "Point", "coordinates": [ -0.1950867, 5.614469 ] } },
{ "type": "Feature", "properties": { "name": "Consolidated Bank Ghana", "name:en": null, "amenity": "bank", "operator": "Consolidated Bank Ghana Limited", "network": null, "addr:full": null, "addr:city": null, "source": null, "osm_id": 6614998955, "osm_type": "nodes" }, "geometry": { "type": "Point", "coordinates": [ -0.0711356, 5.6216069 ] } },
{ "type": "Feature", "properties": { "name": "Consolidated Bank Ghana", "name:en": null, "amenity": "bank", "operator": "Consolidated Bank Ghana Limited", "network": null, "addr:full": null, "addr:city": null, "source": null, "osm_id": 6673369787, "osm_type": "nodes" }, "geometry": { "type": "Point", "coordinates": [ -0.0985003, 5.5887033 ] } },
{ "type": "Feature", "properties": { "name": "Consolidated Bank Ghana", "name:en": null, "amenity": "bank", "operator": "Consolidated Bank Ghana Limited", "network": null, "addr:full": null, "addr:city": null, "source": null, "osm_id": 6682277443, "osm_type": "nodes" }, "geometry": { "type": "Point", "coordinates": [ -1.6146549, 6.7307535 ] } },
{ "type": "Feature", "properties": { "name": "Consolidated Bank Ghana", "name:en": null, "amenity": "bank", "operator": "Consolidated Bank Ghana Limited", "network": null, "addr:full": null, "addr:city": null, "source": null, "osm_id": 6864513590, "osm_type": "nodes" }, "geometry": { "type": "Point", "coordinates": [ -0.2005292, 5.6361883 ] } },
{ "type": "Feature", "properties": { "name": "Consolidated Bank Ghana", "name:en": null, "amenity": "bank", "operator": "Consolidated Bank Ghana Limited", "network": null, "addr:full": null, "addr:city": null, "source": null, "osm_id": 6883038239, "osm_type": "nodes" }, "geometry": { "type": "Point", "coordinates": [ -0.1430628, 5.6303244 ] } },
{ "type": "Feature", "properties": { "name": "Consolidated Bank Ghana", "name:en": null, "amenity": "bank", "operator": "Consolidated Bank Ghana Limited", "network": null, "addr:full": null, "addr:city": null, "source": null, "osm_id": 6938855029, "osm_type": "nodes" }, "geometry": { "type": "Point", "coordinates": [ -1.599217, 6.6890892 ] } },
{ "type": "Feature", "properties": { "name": "Consolidated Bank Ghana", "name:en": null, "amenity": "bank", "operator": "Consolidated Bank Ghana Limited", "network": "MoneyGram", "addr:full": null, "addr:city": "Accra", "source": "Open Cities Accra / GARID- Field Survey", "osm_id": 6976961603, "osm_type": "nodes" }, "geometry": { "type": "Point", "coordinates": [ -0.1975505, 5.5842578 ] } },
{ "type": "Feature", "properties": { "name": "Consolidated Bank Ghana", "name:en": null, "amenity": "bank", "operator": "Consolidated Bank Ghana Limited", "network": null, "addr:full": null, "addr:city": null, "source": null, "osm_id": 7084953830, "osm_type": "nodes" }, "geometry": { "type": "Point", "coordinates": [ -0.1907057, 5.5500315 ] } },
{ "type": "Feature", "properties": { "name": "Consolidated Bank Ghana", "name:en": null, "amenity": "bank", "operator": "Consolidated Bank Ghana Limited", "network": null, "addr:full": null, "addr:city": null, "source": null, "osm_id": 7141742410, "osm_type": "nodes" }, "geometry": { "type": "Point", "coordinates": [ -0.2652444, 5.5362304 ] } },
{ "type": "Feature", "properties": { "name": "Consolidated Bank Ghana", "name:en": null, "amenity": "bank", "operator": "Consolidated Bank Ghana Limited", "network": null, "addr:full": null, "addr:city": "Accra", "source": null, "osm_id": 7164574198, "osm_type": "nodes" }, "geometry": { "type": "Point", "coordinates": [ -0.2370909, 5.6309527 ] } },
{ "type": "Feature", "properties": { "name": "Consolidated Bank Ghana", "name:en": null, "amenity": "bank", "operator": "Consolidated Bank Ghana Limited", "network": null, "addr:full": null, "addr:city": null, "source": null, "osm_id": 4458050664, "osm_type": "nodes" }, "geometry": { "type": "Point", "coordinates": [ -1.7631546, 4.8918928 ] } },
{ "type": "Feature", "properties": { "name": "Consolidated Bank Ghana", "name:en": null, "amenity": "bank", "operator": "Consolidated Bank Ghana Limited", "network": null, "addr:full": null, "addr:city": null, "source": null, "osm_id": 7387777480, "osm_type": "nodes" }, "geometry": { "type": "Point", "coordinates": [ -0.6288855, 5.3689441 ] } },
{ "type": "Feature", "properties": { "name": "Consolidated Bank Ghana", "name:en": null, "amenity": "bank", "operator": "Consolidated Bank Ghana Limited", "network": null, "addr:full": null, "addr:city": null, "source": null, "osm_id": 8346409916, "osm_type": "nodes" }, "geometry": { "type": "Point", "coordinates": [ -0.1527582, 5.7430407 ] } },
{ "type": "Feature", "properties": { "name": "Consolidated Bank Ghana", "name:en": null, "amenity": "bank", "operator": "Consolidated Bank Ghana Limited", "network": null, "addr:full": null, "addr:city": null, "source": null, "osm_id": 10249854200, "osm_type": "nodes" }, "geometry": { "type": "Point", "coordinates": [ -0.2390532, 5.6671122 ] } },
{ "type": "Feature", "properties": { "name": "Consolidated Bank Ghana", "name:en": null, "amenity": "bank", "operator": "Consolidated Bank Ghana Limited", "network": null, "addr:full": null, "addr:city": null, "source": null, "osm_id": 10614470805, "osm_type": "nodes" }, "geometry": { "type": "Point", "coordinates": [ -1.6035539, 6.6780273 ] } },
{ "type": "Feature", "properties": { "name": "Consolidated Bank Ghana", "name:en": null, "amenity": "bank", "operator": "Consolidated Bank Ghana Limited", "network": null, "addr:full": null, "addr:city": null, "source": null, "osm_id": 11118939599, "osm_type": "nodes" }, "geometry": { "type": "Point", "coordinates": [ -0.1669803, 5.6778992 ] } },
{ "type": "Feature", "properties": { "name": "Consolidated Bank Ghana", "name:en": null, "amenity": "bank", "operator": "Consolidated Bank Ghana Limited", "network": null, "addr:full": null, "addr:city": null, "source": null, "osm_id": 11289823714, "osm_type": "nodes" }, "geometry": { "type": "Point", "coordinates": [ -1.6194911, 6.6585535 ] } },
{ "type": "Feature", "properties": { "name": "Consolidated Bank Ghana", "name:en": null, "amenity": "bank", "operator": "Consolidated Bank Ghana Limited", "network": null, "addr:full": null, "addr:city": null, "source": null, "osm_id": 5760823669, "osm_type": "nodes" }, "geometry": { "type": "Point", "coordinates": [ -0.148923, 5.6451783 ] } },
{ "type": "Feature", "properties": { "name": "Consolidated Bank Ghana", "name:en": null, "amenity": "bank", "operator": "Consolidated Bank Ghana Limited", "network": null, "addr:full": null, "addr:city": null, "source": null, "osm_id": 5802472856, "osm_type": "nodes" }, "geometry": { "type": "Point", "coordinates": [ -0.2033021, 5.5522493 ] } },
{ "type": "Feature", "properties": { "name": "Consolidated Bank Ghana", "name:en": null, "amenity": "bank", "operator": "Consolidated Bank Ghana Limited", "network": null, "addr:full": null, "addr:city": "Kumasi", "source": null, "osm_id": 5894057640, "osm_type": "nodes" }, "geometry": { "type": "Point", "coordinates": [ -1.6224483, 6.6959147 ] } },
{ "type": "Feature", "properties": { "name": "Consolidated Bank Ghana", "name:en": null, "amenity": "bank", "operator": "Consolidated Bank Ghana Limited", "network": null, "addr:full": null, "addr:city": null, "source": null, "osm_id": 5903445717, "osm_type": "nodes" }, "geometry": { "type": "Point", "coordinates": [ -0.2345498, 5.5659719 ] } },
{ "type": "Feature", "properties": { "name": "Consolidated Bank Ghana", "name:en": null, "amenity": "bank", "operator": "Consolidated Bank Ghana Limited", "network": null, "addr:full": null, "addr:city": null, "source": null, "osm_id": 6052624862, "osm_type": "nodes" }, "geometry": { "type": "Point", "coordinates": [ -1.6231092, 6.6876947 ] } },